id,name,latitude,longitude,address
72,W 52 St & 11 Ave,40.76727216,-73.99392888,"Citi Bike - W 52 St / 11 Ave, West 52nd Street, Theater District, Manhattan Community Board 4, Manhattan, New York County, New York, 10019, United States"
72,W 52 St & 11 Ave,40.767,-73.995,"609, West 51st Street, Manhattan Community Board 4, Manhattan, New York County, New York, 10019, United States"
79,Franklin St & W Broadway,40.71911552,-74.00666661,"Citi Bike - Franklin St & W Broadway, Franklin Street, Tribeca, Manhattan Community Board 1, Manhattan, New York County, New York, 10005, United States"
79,Franklin St & W Broadway,40.719,-74.007,"Franklin Street, Varick Street, Tribeca, Manhattan Community Board 1, Manhattan, New York County, New York, 10014, United States"
82,St James Pl & Pearl St,40.71117416,-74.00016545,"Citi Bike - Saint James Place & Pearl Street, Pearl Street, Two Bridges, Manhattan Community Board 3, Manhattan, New York County, New York, 10038, United States"
82,St James Pl & Pearl St,40.71,-74.001,"Pearl Street, Two Bridges, Manhattan Community Board 3, Manhattan, New York County, New York, 10038, United States"
83,Atlantic Ave & Fort Greene Pl,40.68382604,-73.97632328,"Citi Bike - Atlantic Avenue & Fort Greene Place, Atlantic Avenue, Prospect Heights, Brooklyn, Kings County, New York, 11208, United States"
116,W 17 St & 8 Ave,40.74177603,-74.00149746,"Citi Bike - W 17 St & 8 Ave, West 17th Street, Chelsea, Manhattan, New York County, New York, 10011, United States"
116,W 17 St & 8 Ave,40.743,-74.001,"310, West 19th Street, Chelsea, Manhattan, New York County, New York, 10011, United States"
119,Park Ave & St Edwards St,40.69608941,-73.97803415,"Citi Bike - Park Ave & St Edwards St, Park Avenue, Fort Greene, Brooklyn, Kings County, New York, 11251, United States"
120,Lexington Ave & Classon Ave,40.68676793,-73.95928168,"Citi Bike - Lexington Ave & Classon Ave, Lexington Avenue, Bedford-Stuyvesant, Brooklyn, Kings County, New York, 11221, United States"
127,Barrow St & Hudson St,40.73172428,-74.00674436,"Citi Bike - Barrow St & Hudson St, Barrow Street, West Village, Manhattan Community Board 2, Manhattan, New York County, New York, 10014, United States"
128,MacDougal St & Prince St,40.72710258,-74.00297088,"Citi Bike - MacDougal St & Prince St, MacDougal Street, University Village, SoHo, Manhattan, New York County, New York, 10012, United States"
143,Clinton St & Joralemon St,40.69239502,-73.99337909,"Citi Bike - Clinton St & Joralemon St, Clinton Street, Brooklyn Heights, Brooklyn, Kings County, New York, 11231, United States"
143,Clinton St & Joralemon St,40.692,-73.992,"59, Livingston Street, Brooklyn Heights, Brooklyn, Kings County, New York, 11201, United States"
144,Nassau St & Navy St,40.69839895,-73.98068914,"Citi Bike, Navy Street, Brooklyn, Kings County, New York, 11251, United States"
146,Hudson St & Reade St,40.71625008,-74.0091059,"Citi Bike - Hudson Street & Reade Street, Hudson Street, Tribeca, Manhattan Community Board 1, Manhattan, New York County, New York, 10014, United States"
146,Hudson St & Reade St,40.716,-74.01,"155, Chambers Street, Tribeca, Manhattan Community Board 1, Manhattan, New York County, New York, 10013, United States"
150,E 2 St & Avenue C,40.7208736,-73.98085795,"Citi Bike - E 2 St & Avenue C, East 2nd Street, East Village, Manhattan Community Board 3, Manhattan, New York County, New York, 10002-1013, United States"
150,E 2 St & Avenue C,40.722,-73.98,"42, Avenue C, East Village, Manhattan Community Board 3, Manhattan, New York County, New York, 10009, United States"
151,Cleveland Pl & Spring St,40.722103786686034,-73.99724900722504,"Petrosino Square Park, Kenmare Street, Manhattan Community Board 2, Manhattan, New York County, New York, 10012-3332, United States"
151,Cleveland Pl & Spring St,40.722,-73.998,"216, Lafayette Street, Manhattan Community Board 2, Manhattan, New York County, New York, 10012, United States"
152,Warren St & W Broadway,40.71473993,-74.00910627,"Citi Bike - Warren St & Church St, Warren Street, Tribeca, Manhattan Community Board 1, Manhattan, New York County, New York, 10007, United States"
157,Henry St & Atlantic Ave,40.69089272,-73.99612349,"Citi Bike - Henry St & Atlantic Ave, Henry Street, Brooklyn Heights, Brooklyn, Kings County, New York, 11231, United States"
161,LaGuardia Pl & W 3 St,40.72917025,-73.99810231,"New York University, West Houston Street, Manhattan Community Board 2, Manhattan, New York County, New York, 10012, United States"
161,LaGuardia Pl & W 3 St,40.728,-73.998,"New York University, West Houston Street, Manhattan Community Board 2, Manhattan, New York County, New York, 10012, United States"
161,LaGuardia Pl & W 3 St [temporarily removed],40.72917025,-73.99810231,"New York University, West Houston Street, Manhattan Community Board 2, Manhattan, New York County, New York, 10012, United States"
164,E 47 St & 2 Ave,40.75323098,-73.97032517,"Citi bike - E 47 St & 2 Ave, East 47th Street, Turtle Bay, Manhattan Community Board 6, Manhattan, New York County, New York, 10017, United States"
167,E 39 St & 3 Ave,40.7489006,-73.97604882,"Citi Bike - E 39 St & 3 Ave, East 39th Street, Murray Hill, Manhattan Community Board 6, Manhattan, New York County, New York, 10016, United States"
167,E 39 St & 3 Ave,40.749,-73.977,"Permanent Mission of the Republic of Guinea to the United Nations, 140, East 39th Street, Murray Hill, Manhattan Community Board 6, Manhattan, New York County, New York, 10016, United States"
168,W 18 St & 6 Ave,40.73971301,-73.99456405,"Citi Bike - W 18 St & 6 Ave, West 18th Street, Manhattan Community Board 5, Manhattan, New York County, New York, 10011, United States"
173,Broadway & W 49 St,40.76068327096592,-73.9845272898674,"Crowne Plaza Times Square, 1605, Broadway, Theater District, Manhattan Community Board 5, Manhattan, New York County, New York, 10019, United States"
173,Broadway & W 49 St,40.761,-73.986,"The Ritz Plaza, 235, West 48th Street, Theater District, Manhattan Community Board 5, Manhattan, New York County, New York, 10036, United States"
174,E 25 St & 1 Ave,40.7381765,-73.97738662,"Brookdale Campus, 425, East 25th Street, Kips Bay, Manhattan Community Board 6, Manhattan, New York County, New York, 10010, United States"
174,E 25 St & 1 Ave,40.737,-73.977,"Veteran Affairs New York Harbor Healthcare System, Asser Levy Place, Kips Bay, Manhattan Community Board 6, Manhattan, New York County, New York, 10016, United States"
195,Liberty St & Broadway,40.70905623,-74.01043382,"Citi Bike - Liberty St & Broadway, Liberty Street, Financial District, Manhattan Community Board 1, Manhattan, New York County, New York, 10005, United States"
212,W 16 St & The High Line,40.74334935,-74.00681753,"Citi Bike - W 16 St & The High Line, West 16th Street, Chelsea District, Manhattan, New York County, New York, 10011, United States"
212,W 16 St & The High Line,40.743,-74.007,"Chelsea Market, 75, 9th Avenue, Chelsea District, Manhattan, New York County, New York, 10011, United States"
216,Columbia Heights & Cranberry St,40.70037867,-73.99548059,"Citi Bike - Columbia Heights & Cranberry St, Brooklyn-Queens Expressway, Brooklyn Heights, Brooklyn, Kings County, New York, 11201-1832, United States"
217,Old Fulton St,40.70277159,-73.99383605,"Citi Bike - Old Fulton St, Old Fulton Street, DUMBO, Brooklyn, Kings County, New York, 11201-1832, United States"
223,W 13 St & 7 Ave,40.73781509,-73.99994661,"Citi Bike - W 13 St & 7 Ave, West 13th Street, West Village, Manhattan Community Board 2, Manhattan, New York County, New York, 10011, United States"
224,Spruce St & Nassau St,40.71146364,-74.00552427,"Citi Bike - Spruce Street & Nassau Street, Spruce Street, Financial District, Manhattan Community Board 1, Manhattan, New York County, New York, 10038, United States"
228,E 48 St & 3 Ave,40.7546011026,-73.971878855,"The Buchanan, 160, East 48th Street, Turtle Bay, Manhattan Community Board 6, Manhattan, New York County, New York, 10017, United States"
229,Great Jones St,40.72743423,-73.99379025,"Citi Bike - Great Jones St, Great Jones Street, NoHo, Manhattan, New York County, New York, 10012, United States"
232,Cadman Plaza E & Tillary St,40.69597683,-73.99014892,"Citi Bike - Cadman Plaza E & Tillary St, Cadman Plaza East, Downtown Brooklyn, Brooklyn, Kings County, New York, 11201, United States"
236,St Marks Pl & 2 Ave,40.7284186,-73.98713956,"Citi Bike - St Marks Pl & 2 Ave, Saint Mark's Place, East Village, Manhattan Community Board 3, Manhattan, New York County, New York, 10003, United States"
236,St Marks Pl & 2 Ave,40.728,-73.986,"69, Saint Mark's Place, East Village, Manhattan Community Board 3, Manhattan, New York County, New York, 10003, United States"
237,E 11 St & 2 Ave,40.73047309,-73.98672378,"245, East 11th Street, East Village, Manhattan Community Board 3, Manhattan, New York County, New York, 10003, United States"
238,Bank St & Washington St,40.7361967,-74.00859207,"Citi Bike - Bank St & Washington St, Bank Street, West Village, Manhattan Community Board 2, Manhattan, New York County, New York, 10014, United States"
238,Bank St & Washington St,40.737,-74.01,"West Street, West Village, Meatpacking District, Manhattan, New York County, New York, 10014-3621, United States"
239,Willoughby St & Fleet St,40.69196566,-73.9813018,"Citi Bike, Willoughby Street, Downtown Brooklyn, Brooklyn, Kings County, New York, 11201, United States"
239,Willoughby St & Fleet St,40.692,-73.98,"191, Willoughby Street, Downtown Brooklyn, Brooklyn, Kings County, New York, 11201, United States"
241,DeKalb Ave & S Portland Ave,40.68981035,-73.97493121,"Citi Bike - DeKalb Ave & S Portland Ave, DeKalb Avenue, Fort Greene, Brooklyn, Kings County, New York, 11221, United States"
242,Carlton Ave & Flushing Ave,40.697787,-73.973736,"Citi Bike, Carlton Avenue, Fort Greene, Brooklyn, Kings County, New York, 11238, United States"
242,Carlton Ave & Flushing Ave,40.698,-73.974,"80, Flushing Avenue, Fort Greene, Brooklyn, Kings County, New York, 11205, United States"
243,Fulton St & Rockwell Pl,40.688226,-73.979382,"66 Rockwell, Fulton Street, Fort Greene, Brooklyn, Kings County, New York, 11207, United States"
243,Fulton St & Rockwell Pl,40.68841,-73.979458,"Citi Bike - Fulton St & Rockwell Pl, Fulton Street, Fort Greene, Brooklyn, Kings County, New York, 11207, United States"
244,Willoughby Ave & Hall St,40.69196035,-73.96536851,"Citi Bike - Willoughby Ave & Hall St, Willoughby Avenue, Clinton Hill, Brooklyn, Kings County, New York, 11205, United States"
245,Myrtle Ave & St Edwards St,40.69327018,-73.97703874,"Citi Bike, Myrtle Avenue, Fort Greene, Brooklyn, Kings County, New York, 11237, United States"
245,Myrtle Ave & St Edwards St,40.692,-73.977,"Evergreen Rehab, 140, Saint Edwards Street, Fort Greene, Brooklyn, Kings County, New York, 11201, United States"
247,Perry St & Bleecker St,40.73535398,-74.00483091,"Citi Bike - Perry St & Bleecker St, Perry Street, West Village, Manhattan Community Board 2, Manhattan, New York County, New York, 10014, United States"
248,Laight St & Hudson St,40.72185379,-74.00771779,"Citi Bike - Laight St & Hudson St, Laight Street, Tribeca, Manhattan Community Board 1, Manhattan, New York County, New York, 10013, United States"
249,Harrison St & Hudson St,40.71870987,-74.0090009,"Citi Bike - Harrison St & Hudson St, Harrison Street, Tribeca, Manhattan Community Board 1, Manhattan, New York County, New York, 10013, United States"
249,Harrison St & Hudson St,40.719,-74.01,"361, Greenwich Street, Tribeca, Manhattan Community Board 1, Manhattan, New York County, New York, 10013, United States"
250,Lafayette St & Jersey St,40.72456089,-73.99565293,"Citi Bike - Lafayette St & Jersey St, Lafayette Street, Manhattan Community Board 2, Manhattan, New York County, New York, 10012-3332, United States"
251,Mott St & Prince St,40.72317958,-73.99480012,"Citi Bike - Mott St & Prince St, Mott Street, Little Italy, Manhattan, New York County, New York, 10012, United States"
251,Mott St & Prince St,40.722,-73.995,"21, Spring Street, Manhattan Community Board 2, Manhattan, New York County, New York, 10012, United States"
252,MacDougal St & Washington Sq,40.73226398,-73.99852205,"Citi Bike - MacDougal St & Washington Sq, Washington Square North, Washington Square Village, Manhattan Community Board 2, Manhattan, New York County, New York, 10011-6832, United States"
254,W 11 St & 6 Ave,40.73532427,-73.99800419,"Citi Bike - W 11 St & 6 Ave, West 11th Street, Washington Square Village, Manhattan Community Board 2, Manhattan, New York County, New York, 10014, United States"
257,Lispenard St & Broadway,40.71939226,-74.00247214,"Citi Bike - Lispenard St & Broadway, Lispenard Street, Tribeca, Manhattan Community Board 1, Manhattan, New York County, New York, 10013, United States"
257,Lispenard St & Broadway,40.719,-74.001,"Bonsai Kakigöri, 265, Canal Street, SoHo, Manhattan, New York County, New York, 10013, United States"
258,DeKalb Ave & Vanderbilt Ave,40.68940747,-73.96885458,"Citi Bike - DeKalb Ave & Vanderbilt Ave, DeKalb Avenue, Fort Greene, Brooklyn, Kings County, New York, 11221, United States"
259,South St & Whitehall St,40.70122128,-74.01234218,"Battery Maritime Building, 10, South Street, Financial District, Manhattan Community Board 1, Manhattan, New York County, New York, 10004, United States"
259,South St & Whitehall St,40.701,-74.013,"Staten Island Ferry Whitehall Terminal, 4, South Street, Financial District, Manhattan Community Board 1, Manhattan, New York County, New York, 10004, United States"
260,Broad St & Bridge St,40.70365182,-74.01167797,"Citi Bike - Broad St & Bridge St, Bridge Street, Financial District, Manhattan Community Board 1, Manhattan, New York County, New York, 10004, United States"
260,Broad St & Bridge St,40.704,-74.013,"1 Whitehall Street, 1, Whitehall Street, Financial District, Manhattan Community Board 1, Manhattan, New York County, New York, 10004, United States"
261,Johnson St & Gold St,40.69474881,-73.98362464,"Citi Bike, Johnson Street, Brooklyn, Kings County, New York, 11201, United States"
262,Washington Park,40.6917823,-73.9737299,"Citi Bike, Washington Park, Fort Greene, Brooklyn, Kings County, New York, 11205, United States"
264,Maiden Ln & Pearl St,40.70706456,-74.00731853,"Citi Bike - Maiden Ln & Pearl St, Maiden Lane, Financial District, Manhattan Community Board 1, Manhattan, New York County, New York, 10038, United States"
265,Stanton St & Chrystie St,40.72229346,-73.99147535,"Citi Bike - Stanton St & Chrystie St, Stanton Street, Lower East Side, Manhattan Community Board 3, Manhattan, New York County, New York, 10012-3332, United States"
266,Avenue D & E 8 St,40.72368361,-73.97574813,"Citi Bike - Avenue D & E 8 St, East 8th Street, East Village, Manhattan Community Board 3, Manhattan, New York County, New York, 10009:10010, United States"
266,Avenue D & E 8 St (home location),40.72368361,-73.97574813,"Citi Bike - Avenue D & E 8 St, East 8th Street, East Village, Manhattan Community Board 3, Manhattan, New York County, New York, 10009:10010, United States"
267,Broadway & W 36 St,40.75097711,-73.98765428,"Citi Bike - Broadway & W 36 St, Broadway, Garment District, Manhattan Community Board 5, Manhattan, New York County, New York, 10019, United States"
267,Broadway & W 36 St,40.752,-73.989,"153, West 36th Street, Garment District, Manhattan Community Board 5, Manhattan, New York County, New York, 10018, United States"
268,Howard St & Centre St,40.71910537,-73.99973337,"Citi Bike - Howard St & Centre St, Howard Street, Manhattan Community Board 2, Manhattan, New York County, New York, 10013, United States"
268,Howard St & Centre St,40.719,-74.001,"Bonsai Kakigöri, 265, Canal Street, SoHo, Manhattan, New York County, New York, 10013, United States"
270,Adelphi St & Myrtle Ave,40.69308257,-73.97178913,"Citi Bike - Adelphi St & Myrtle Ave, Adelphi Street, Fort Greene, Brooklyn, Kings County, New York, 11238, United States"
274,Lafayette Ave & Fort Greene Pl,40.68691865,-73.976682,"Citi Bike - Lafayette Ave & Fort Greene Pl, Lafayette Avenue, Fort Greene, Brooklyn, Kings County, New York, 11221, United States"
274,Lafayette Ave & Fort Greene Pl,40.686,-73.977,"123, Saint Felix Street, Fort Greene, Brooklyn, Kings County, New York, 11217, United States"
275,Washington Ave & Greene Ave,40.68650065,-73.96563307,"Citi Bike - Washington Ave & Greene Ave, Washington Avenue, Clinton Hill, Brooklyn, Kings County, New York, 11238, United States"
276,Duane St & Greenwich St,40.71748752,-74.0104554,"Citi Bike - Duane St & Greenwich St, Duane Street, Tribeca, Manhattan Community Board 1, Manhattan, New York County, New York, 10007, United States"
278,Concord St & Bridge St,40.69766564,-73.98476437,"165, Concord Street, DUMBO, Brooklyn, Kings County, New York, 11201, United States"
278,Concord St & Bridge St,40.698,-73.986,"Bridge Plaza Court, DUMBO, Brooklyn, Kings County, New York, 11201-1832, United States"
279,Peck Slip & Front St,40.707873,-74.00167,"Citi Bike - Peck Slip & Front St, Peck Slip, Financial District, Manhattan Community Board 1, Manhattan, New York County, New York, 10038, United States"
280,E 10 St & 5 Ave,40.73331967,-73.99510132,"Citi Bike - E 10 St & 5 Ave, East 10th Street, Washington Square Village, Manhattan Community Board 2, Manhattan, New York County, New York, 10009, United States"
280,E 10 St & 5 Ave,40.734,-73.995,"1, East 11th Street, Washington Square Village, Manhattan Community Board 2, Manhattan, New York County, New York, 10003, United States"
281,Grand Army Plaza & Central Park S,40.7643971,-73.97371465,"Citi Bike - Grand Army Plaza & Central Park S, Grand Army Plaza, Midtown, Manhattan Community Board 5, Manhattan, New York County, New York, 10153, United States"
281,Grand Army Plaza & Central Park S,40.764,-73.974,"Pulitzer Fountain, Grand Army Plaza, Midtown, Manhattan Community Board 5, Manhattan, New York County, New York, 10153, United States"
282,Kent Ave & S 11 St,40.707644944175705,-73.96841526031494,"431, Kent Avenue, Brooklyn, Kings County, New York, 11249, United States"
282,Kent Ave & S 11 St,40.707,-73.968,"Be'ikvei Hatzoin, 31, Division Avenue, Brooklyn, Kings County, New York, 11249, United States"
284,Greenwich Ave & 8 Ave,40.7390169121,-74.0026376103,"Citi Bike - Greenwich Ave & 8 Ave, Greenwich Avenue, West Village, Manhattan Community Board 2, Manhattan, New York County, New York, 10014, United States"
284,Greenwich Ave & 8 Ave,40.74,-74.004,"326, West 14th Street, West Village, Manhattan Community Board 2, Manhattan, New York County, New York, 10014, United States"
285,Broadway & E 14 St,40.73454567,-73.99074142,"Citi Bike - Broadway & E 14 St, Broadway, East Village, Manhattan Community Board 2, Manhattan, New York County, New York, 10003, United States"
285,Broadway & E 14 St,40.734,-73.992,"37, East 12th Street, Washington Square Village, Manhattan Community Board 2, Manhattan, New York County, New York, 10003, United States"
289,Monroe St & Classon Ave,40.6845683,-73.95881081,"Citi Bike - Monroe St & Classon Ave, Monroe Street, Bedford-Stuyvesant, Brooklyn, Kings County, New York, 11221, United States"
291,Madison St & Montgomery St,40.713126,-73.984844,"Citi Bike - Madison Street & Montgomery Street, Madison Street, Lower East Side, Manhattan Community Board 3, Manhattan, New York County, New York, 10002, United States"
293,Lafayette St & E 8 St,40.73020660529954,-73.99102628231049,"Astor Place, Lafayette Street, Manhattan Community Board 2, Manhattan, New York County, New York, 10003, United States"
293,Lafayette St & E 8 St,40.731,-73.992,"8th Street-New York University, East 8th Street, Washington Square Village, NoHo, Manhattan, New York County, New York, 10003, United States"
295,Pike St & E Broadway,40.71406667,-73.99293911,"Citi Bike - Pike St & E Broadway, Pike Street, Manhattan Community Board 3, Manhattan, New York County, New York, 10002, United States"
296,Division St & Bowery,40.71413089,-73.9970468,"Citi Bike - Division Street & Bowery, Division Street, Manhattan Community Board 3, Manhattan, New York County, New York, 10002, United States"
296,Division St & Bowery (old),40.71413089,-73.9970468,"Citi Bike - Division Street & Bowery, Division Street, Manhattan Community Board 3, Manhattan, New York County, New York, 10002, United States"
297,E 15 St & 3 Ave,40.734232,-73.986923,"Citi Bike - E 15 St & 3 Ave, East 15th Street, Union Square, Manhattan Community Board 6, Manhattan, New York County, New York, 10003, United States"
297,E 15 St & 3 Ave,40.734,-73.986,"207, East 15th Street, Manhattan Community Board 6, Manhattan, New York County, New York, 10003, United States"
298,3 Ave & Schermerhorn St,40.68683208,-73.9796772,"Citi Bike - 3 Ave & Schermerhorn St, 3 Avenue, Downtown Brooklyn, Brooklyn, Kings County, New York, 11227, United States"
301,E 2 St & Avenue B,40.72217444,-73.98368779,"Citi Bike - E 2 St & Avenue B, East 2nd Street, East Village, Manhattan Community Board 3, Manhattan, New York County, New York, 10002-1013, United States"
301,E 2 St & Avenue B,40.722,-73.983,"214, East 2nd Street, East Village, Manhattan Community Board 3, Manhattan, New York County, New York, 10009, United States"
302,Avenue D & E 3 St,40.72082834,-73.97793172,"Citi Bike - Avenue D & E 3 St, Avenue D, East Village, Manhattan Community Board 3, Manhattan, New York County, New York, 10009, United States"
303,Mercer St & Spring St,40.72362738,-73.99949601,"105, Mercer Street, Manhattan Community Board 2, Manhattan, New York County, New York, 10012, United States"
304,Broadway & Battery Pl,40.70463334,-74.01361706,"Citi Bike - Broadway & Battery Pl, Battery Place, Financial District, Manhattan Community Board 1, Manhattan, New York County, New York, 10275, United States"
305,E 58 St & 3 Ave,40.76095756,-73.96724467,"Citi Bike - E 58 St & 3 Ave, East 58th Street, Manhattan Community Board 6, Manhattan, New York County, New York, 10022, United States"
305,E 58 St & 3 Ave,40.761,-73.968,"Architects & Designers Building, East 58th Street, Manhattan Community Board 6, Manhattan, New York County, New York, 10022, United States"
307,Canal St & Rutgers St,40.71427487,-73.98990025,"Citi Bike - Canal St & Seward Pk, Canal Street, Lower East Side, Manhattan Community Board 3, Manhattan, New York County, New York, 10002, United States"
308,St James Pl & Oliver St,40.71307916,-73.99851193,"Citi Bike - St James Pl & Oliver St, Pearl Street, Lower Manhattan, Manhattan Community Board 3, Manhattan, New York County, New York, 10038, United States"
308,St James Pl & Oliver St,40.713,-73.998,"2, Oliver Street, Manhattan Community Board 3, Manhattan, New York County, New York, 10038, United States"
309,Murray St & West St,40.7149787,-74.013012,"Citi Bike - Murray St & West St, Murray Street, Tribeca, Manhattan Community Board 1, Manhattan, New York County, New York, 10282, United States"
310,State St & Smith St,40.68926942,-73.98912867,"Brooklyn Detention Complex, Boerum Place, Boerum Hill, Brooklyn, Kings County, New York, 11201, United States"
310,State St & Smith St,40.689,-73.989,"Brooklyn Detention Complex, Boerum Place, Boerum Hill, Brooklyn, Kings County, New York, 11201, United States"
311,Norfolk St & Broome St,40.7172274,-73.98802084,"Citi Bike - Norfolk St & Broome St, Norfolk Street, Lower East Side, Manhattan Community Board 3, Manhattan, New York County, New York, 10002, United States"
311,Norfolk St & Broome St,40.716,-73.989,"365, Grand Street, Lower East Side, Manhattan Community Board 3, Manhattan, New York County, New York, 10002, United States"
312,Allen St & Stanton St,40.722055,-73.989111,"Citi Bike - Allen St & E Houston St, Allen Street, Lower East Side, Manhattan Community Board 3, Manhattan, New York County, New York, 10002, United States"
313,Washington Ave & Park Ave,40.69610226,-73.96751037,"Citi Bike - Washington Ave & Park Ave, Washington Avenue, Clinton Hill, Brooklyn, Kings County, New York, 11238, United States"
314,Cadman Plaza West & Montague St,40.69383,-73.990539,"Citi Bike - Cadman Plaza West & Montague St, Montague Street, Cobble Hill, Brooklyn, Kings County, New York, 11201, United States"
315,South St & Gouverneur Ln,40.70355377,-74.00670227,"Pier 11, FDR Drive, Financial District, Manhattan Community Board 1, Manhattan, New York County, New York, 10041, United States"
316,Fulton St & William St,40.70955958,-74.00653609,"Fulton Street, Theater Alley, Financial District, Manhattan Community Board 1, Manhattan, New York County, New York, 10000, United States"
316,Fulton St & William St,40.71,-74.007,"119, Fulton Street, Financial District, Manhattan Community Board 1, Manhattan, New York County, New York, 10038, United States"
317,E 6 St & Avenue B,40.72453734,-73.98185424,"Citi Bike - E 6 St & Avenue B, East 6th Street, East Village, Manhattan Community Board 3, Manhattan, New York County, New York, 10009, United States"
319,Fulton St & Broadway,40.711066,-74.009447,"Citi Bike - Fulton St & Broadway, Fulton Street, Financial District, Manhattan Community Board 1, Manhattan, New York County, New York, 10038, United States"
319,Fulton St & Broadway,40.71,-74.01,"175, Broadway, Financial District, Manhattan Community Board 1, Manhattan, New York County, New York, 10007, United States"
320,Leonard St & Church St,40.717571,-74.005549,"Citi Bike - Leonard St & Church St, Leonard Street, Tribeca, Manhattan Community Board 1, Manhattan, New York County, New York, 10013, United States"
320,Leonard St & Church St,40.719,-74.007,"Franklin Street, Varick Street, Tribeca, Manhattan Community Board 1, Manhattan, New York County, New York, 10014, United States"
321,Cadman Plaza E & Red Cross Pl,40.69991755,-73.98971773,"Citi Bike - Cadman Plaza E & Red Cross Pl, Cadman Plaza East, DUMBO, Brooklyn, Kings County, New York, 11201, United States"
323,Lawrence St & Willoughby St,40.69236178,-73.98631746,"Citi Bike - Lawrence St & Willoughby St, Lawrence Street, Downtown Brooklyn, Brooklyn, Kings County, New York, 11201, United States"
323,Lawrence St & Willoughby St,40.692,-73.986,"66, Willoughby Street, Downtown Brooklyn, Brooklyn, Kings County, New York, 11201, United States"
324,DeKalb Ave & Hudson Ave,40.689888,-73.981013,"Citi Bike - DeKalb Ave & Hudson Ave, DeKalb Avenue, Downtown Brooklyn, Brooklyn, Kings County, New York, 11221, United States"
325,E 19 St & 3 Ave,40.73624527,-73.98473765,"Citi Bike - E 19 St & 3 Ave, East 19th Street, Manhattan Community Board 6, Manhattan, New York County, New York, 10003, United States"
326,E 11 St & 1 Ave,40.72953837,-73.98426726,"Citi Bike - E 11 St & 1 Ave, East 11th Street, East Village, Manhattan Community Board 3, Manhattan, New York County, New York, 10009, United States"
327,Vesey Pl & River Terrace,40.7153379,-74.01658354,"Irish Hunger Memorial, North End Avenue, Battery Park City, Manhattan Community Board 1, Manhattan, New York County, New York, 10282, United States"
327,Vesey Pl & River Terrace,40.716,-74.016,"Murray Street, Battery Park City, Manhattan Community Board 1, Manhattan, New York County, New York, 10282, United States"
328,Watts St & Greenwich St,40.72405549,-74.00965965,"Citi Bike - Watts St & Greenwich St, Watts Street, Tribeca, Manhattan Community Board 1, Manhattan, New York County, New York, 10005, United States"
330,Reade St & Broadway,40.71450451,-74.00562789,"Citi Bike - Reade St & Broadway, Reade Street, Lower Manhattan, Manhattan Community Board 1, Manhattan, New York County, New York, 10013, United States"
331,Pike St & Monroe St,40.71173107,-73.99193043,"65-75, Pike Street, Two Bridges, Manhattan Community Board 3, Manhattan, New York County, New York, 10002, United States"
331,Pike St & Monroe St,40.713,-73.992,"Public School 2, 122, Henry Street, Two Bridges, Manhattan Community Board 3, Manhattan, New York County, New York, 10002, United States"
332,Cherry St,40.71219906,-73.97948148,"Citi Bike - Cherry Street @ Corlears Hook Park, Cherry Street, Lower East Side, Manhattan Community Board 3, Manhattan, New York County, New York, 10002, United States"
332,Cherry St,40.713,-73.98,"22, Jackson Street, Lower East Side, Manhattan Community Board 3, Manhattan, New York County, New York, 10002, United States"
334,W 20 St & 7 Ave,40.74238787,-73.99726235,"Citi Bike - W 20 St & 7 Ave, West 20th Street, Chelsea District, Manhattan, New York County, New York, 10011, United States"
334,W 20 St & 7 Ave,40.743,-73.998,"224, West 21st Street, Chelsea District, Manhattan, New York County, New York, 10011, United States"
335,Washington Pl & Broadway,40.72903917,-73.99404649,"New York University, West Houston Street, Manhattan Community Board 2, Manhattan, New York County, New York, 10012, United States"
335,Washington Pl & Broadway,40.728,-73.995,"Merchants Building, West 3rd Street, Greenwich Village, Manhattan, New York County, New York, 10012, United States"
336,Sullivan St & Washington Sq,40.73047747,-73.99906065,"New York University, West Houston Street, Manhattan Community Board 2, Manhattan, New York County, New York, 10012, United States"
337,Old Slip & Front St,40.7037992,-74.00838676,"Citi Bike - Old Slip & Front St, Old Slip, Financial District, Manhattan Community Board 1, Manhattan, New York County, New York, 10005, United States"
339,Avenue D & E 12 St,40.72580614,-73.97422494,"Citi Bike - Avenue D & E 12 St, Avenue D, East Village, Manhattan Community Board 3, Manhattan, New York County, New York, 10009:10010, United States"
340,Madison St & Clinton St,40.71269042,-73.98776323,"Citi Bike, Madison Street, Two Bridges, Manhattan Community Board 3, Manhattan, New York County, New York, 10002, United States"
341,Stanton St & Mangin St,40.71782143,-73.97628939,"Baruch Playground, Stanton Street, Lower East Side, Manhattan Community Board 3, Manhattan, New York County, New York, 10002, United States"
342,Columbia St & Rivington St,40.71739973,-73.98016555,"Citi Bike - Columbia St & Rivington St, Columbia Street, Lower East Side, Manhattan Community Board 3, Manhattan, New York County, New York, 10002, United States"
343,Clinton Ave & Flushing Ave,40.69794,-73.96986848,"Citi Bike - Clinton Ave & Flushing Ave, Flushing Avenue, Fort Greene, Brooklyn, Kings County, New York, 11205, United States"
343,Clinton Ave & Flushing Ave,40.698,-73.971,"Citi Bike - Flushing Av / Vanderbilt Av, Flushing Avenue, Fort Greene, Brooklyn, Kings County, New York, 11205, United States"
344,Monroe St & Bedford Ave,40.6851443,-73.95380904,"Citi Bike - Monroe St & Bedford Ave, Monroe Street, Bedford-Stuyvesant, Brooklyn, Kings County, New York, 11221, United States"
344,Monroe St & Bedford Ave,40.686,-73.953,"353, Gates Avenue, Brooklyn, Kings County, New York, 11216, United States"
346,Bank St & Hudson St,40.73652889,-74.00618026,"Citi Bike - Bank St & Hudson St, Bank Street, West Village, Manhattan Community Board 2, Manhattan, New York County, New York, 10014, United States"
346,Bank St & Hudson St,40.737,-74.007,"20, Bethune Street, West Village, Manhattan Community Board 2, Manhattan, New York County, New York, 10014, United States"
347,Greenwich St & W Houston St,40.728846,-74.008591,"Citi Bike, Greenwich Street, Hudson Square, Manhattan Community Board 2, Manhattan, New York County, New York, 10014, United States"
347,Greenwich St & W Houston St,40.728,-74.01,"500, Washington Street, Hudson Square, Manhattan Community Board 2, Manhattan, New York County, New York, 10013, United States"
349,Rivington St & Ridge St,40.71850211,-73.98329859,"Citi Bike - Rivington St & Ridge St, Rivington Street, Lower East Side, Manhattan Community Board 3, Manhattan, New York County, New York, 10002, United States"
350,Clinton St & Grand St,40.71559509,-73.9870295,"Citi Bike, Clinton Street, Lower East Side, Manhattan Community Board 3, Manhattan, New York County, New York, 10002, United States"
351,Front St & Maiden Ln,40.70530954,-74.00612572,"Citi Bike - Front St & Maiden Ln, Pine Street, Financial District, Manhattan Community Board 1, Manhattan, New York County, New York, 10045, United States"
353,S Portland Ave & Hanson Pl,40.68539567,-73.97431458,"Citi Bike - S Portland Ave & Hanson Pl, South Portland Avenue, Fort Greene, Brooklyn, Kings County, New York, 11217, United States"
353,S Portland Ave & Hanson Pl,40.686,-73.974,"698, Fulton Street, Fort Greene, Brooklyn, Kings County, New York, 11217, United States"
354,Emerson Pl & Myrtle Ave,40.69363137,-73.96223558,"Citi Bike, Emerson Place, Clinton Hill, Brooklyn, Kings County, New York, 11205, United States"
354,Emerson Pl & Myrtle Ave,40.695,-73.962,"93, Emerson Place, Clinton Hill, Brooklyn, Kings County, New York, 11205, United States"
355,Bayard St & Baxter St,40.71602118,-73.99974372,"Citi Bike - Bayard Street & Baxter Street, Bayard Street, Chinatown, Manhattan, New York County, New York, 10013, United States"
356,Bialystoker Pl & Delancey St,40.71622644,-73.98261206,"Citi Bike - Willett St & Delancey St, Willett Street, Lower East Side, Manhattan Community Board 3, Manhattan, New York County, New York, 10002, United States"
357,E 11 St & Broadway,40.73261787,-73.99158043,"Citi Bike - E 11 St & Broadway, East 11th Street, Washington Square Village, Manhattan Community Board 2, Manhattan, New York County, New York, 10003, United States"
358,Christopher St & Greenwich St,40.73291553,-74.00711384,"Citi Bike - Christopher St & Greenwich St, Christopher Street, West Village, Manhattan Community Board 2, Manhattan, New York County, New York, 10014, United States"
358,Christopher St & Greenwich St,40.734,-74.007,"705, Greenwich Street, West Village, Manhattan Community Board 2, Manhattan, New York County, New York, 10014, United States"
359,E 47 St & Park Ave,40.75510267,-73.97498696,"Grand Central Terminal, Vanderbilt Avenue, Manhattan Community Board 5, Manhattan, New York County, New York, 10017, United States"
359,E 47 St & Park Ave,40.755,-73.974,"Grand Central Terminal, Vanderbilt Avenue, Manhattan Community Board 5, Manhattan, New York County, New York, 10017, United States"
360,William St & Pine St,40.70717936,-74.00887308,"Citi Bike, Chase Manhattan Plaza, Financial District, Manhattan Community Board 1, Manhattan, New York County, New York, 10045, United States"
361,Allen St & Hester St,40.71605866,-73.99190759,"Citi Bike - Allen St & Hester St, Allen Street, Lower East Side, Manhattan Community Board 3, Manhattan, New York County, New York, 10002, United States"
361,Allen St & Hester St,40.716,-73.992,"Allen Street, Chinatown, Manhattan, New York County, New York, 10002, United States"
362,Broadway & W 37 St,40.75172632,-73.98753523,"Citi Bike - Broadway & W 37 St, Broadway, Garment District, Manhattan Community Board 5, Manhattan, New York County, New York, 10019, United States"
362,Broadway & W 37 St,40.752,-73.989,"153, West 36th Street, Garment District, Manhattan Community Board 5, Manhattan, New York County, New York, 10018, United States"
363,West Thames St,40.70834698,-74.01713445,"Citi Bike - West Thames St, West Thames Street, Battery Park City, Manhattan Community Board 1, Manhattan, New York County, New York, 10280, United States"
364,Lafayette Ave & Classon Ave,40.68900443,-73.96023854,"Citi Bike - Lafayette Avenue & Classon Avenue, Lafayette Avenue, Clinton Hill, Brooklyn, Kings County, New York, 11221, United States"
364,Lafayette Ave & Classon Ave,40.689,-73.959,"Classon Avenue, Lafayette Avenue, Clinton Hill, Brooklyn, Kings County, New York, 11221, United States"
365,Fulton St & Grand Ave,40.68223166,-73.9614583,"Citi Bike - Fulton St & Grand Ave, Fulton Street, Prospect Heights, Brooklyn, Kings County, New York, 11207, United States"
366,Clinton Ave & Myrtle Ave,40.693261,-73.968896,"Citi Bike - Clinton Ave & Myrtle Ave, Clinton Avenue, Clinton Hill, Brooklyn, Kings County, New York, 11205, United States"
367,E 53 St & Lexington Ave,40.75828065,-73.97069431,"East 53rd Street & Lexington Avenue at Northeast Corner, East 53rd Street, Turtle Bay, Manhattan Community Board 6, Manhattan, New York County, New York, 10152, United States"
368,Carmine St & 6 Ave,40.73038599,-74.00214988,"Citi Bike - Carmine St & 6 Ave, Carmine Street, West Village, Manhattan Community Board 2, Manhattan, New York County, New York, 10014, United States"
369,Washington Pl & 6 Ave,40.73224119,-74.00026394,"Citi Bike - Washington Pl & 6 Ave, West Washington Place, Washington Square Village, Manhattan Community Board 2, Manhattan, New York County, New York, 10011, United States"
372,Franklin Ave & Myrtle Ave,40.694546087246025,-73.95801365375519,"Citi Bike - Franklin Ave & Myrtle Ave, Franklin Avenue, Clinton Hill, Brooklyn, Kings County, New York, 11225, United States"
373,Willoughby Ave & Walworth St,40.69331716,-73.95381995,"Citi Bike - Willoughby Ave & Walworth St, Willoughby Avenue, Clinton Hill, Brooklyn, Kings County, New York, 11205, United States"
376,John St & William St,40.70862144,-74.00722156,"Citi Bike - John St & William St, John Street, Financial District, Manhattan Community Board 1, Manhattan, New York County, New York, 10038, United States"
377,6 Ave & Canal St,40.72243797,-74.00566443,"Citi Bike - 6 Ave & Canal St, Sullivan Street, Hudson Square, Manhattan Community Board 2, Manhattan, New York County, New York, 10005, United States"
379,W 31 St & 7 Ave,40.749156,-73.9916,"PNC Bank, West 31st Street, Chelsea District, Manhattan, New York County, New York, 10001, United States"
379,W 31 St & 7 Ave,40.749,-73.992,"Stewart Hotel, 371, 7th Avenue, Chelsea District, Manhattan, New York County, New York, 10001, United States"
379,W 31 St & 7 Ave [temporarily removed],40.749156,-73.9916,"PNC Bank, West 31st Street, Chelsea District, Manhattan, New York County, New York, 10001, United States"
380,W 4 St & 7 Ave S,40.73401143,-74.00293877,"Citi bike - W 4 St & 7 Ave S, West 4th Street, West Village, Manhattan Community Board 2, Manhattan, New York County, New York, 10014, United States"
380,W 4 St & 7 Ave S,40.734,-74.004,"202, West 10th Street, West Village, Manhattan Community Board 2, Manhattan, New York County, New York, 10014, United States"
382,University Pl & E 14 St,40.73492695,-73.99200509,"citibike, University Place, Union Square, Manhattan Community Board 2, Manhattan, New York County, New York, 10003, United States"
382,University Pl & E 14 St (old),40.73492695,-73.99200509,"citibike, University Place, Union Square, Manhattan Community Board 2, Manhattan, New York County, New York, 10003, United States"
383,Greenwich Ave & Charles St,40.735238,-74.000271,"Citi Bike - Greenwich Ave & Charles St, Greenwich Avenue, West Village, Manhattan Community Board 2, Manhattan, New York County, New York, 10014, United States"
385,E 55 St & 2 Ave,40.75797322,-73.96603308,"Citi Bike - E 55 St / 2 Ave, East 55th Street, Manhattan Community Board 6, Manhattan, New York County, New York, 10022, United States"
386,Centre St & Worth St,40.71494807,-74.00234482,"Citi Bike - Centre Street & Worth Street, Centre Street, Lower Manhattan, Manhattan Community Board 1, Manhattan, New York County, New York, 10278, United States"
387,Centre St & Chambers St,40.71273266,-74.0046073,"Brooklyn Bridge-City Hall (4,5,6,<6>), Centre Street, Lower Manhattan, Manhattan Community Board 1, Manhattan, New York County, New York, 10000, United States"
388,W 26 St & 10 Ave,40.749717753,-74.002950346,"Citi Bike - W 26 St & 10 Ave, West 26th Street, Chelsea District, Manhattan, New York County, New York, 10001, United States"
388,W 26 St & 10 Ave,40.749,-74.004,"510, West 25th Street, Chelsea District, Manhattan, New York County, New York, 10001, United States"
389,Broadway & Berry St,40.71044554,-73.96525063,"Citi Bike - Broadway & Berry St, Broadway, Brooklyn, Kings County, New York, 11207, United States"
390,Duffield St & Willoughby St,40.69221589,-73.9842844,"Citi Bike - Duffield St / Willoughby St, Duffield Street, Downtown Brooklyn, Brooklyn, Kings County, New York, 11201, United States"
390,Duffield St & Willoughby St,40.692,-73.983,"141, Willoughby Street, Downtown Brooklyn, Brooklyn, Kings County, New York, 11201, United States"
391,Clark St & Henry St,40.69760127,-73.99344559,"Citi Bike - Clark St & Henry St, Clark Street, Brooklyn Heights, Brooklyn, Kings County, New York, 11201-1832, United States"
391,Clark St & Henry St,40.698,-73.992,"93, Pineapple Walk, DUMBO, Brooklyn, Kings County, New York, 11201, United States"
392,Jay St & Tech Pl,40.695065,-73.987167,"New York City College of Technology, Tillary Street, Downtown Brooklyn, Brooklyn, Kings County, New York, 11201-1832, United States"
393,E 5 St & Avenue C,40.72299208,-73.97995466,"Citi Bike - E 5 St & Avenue C, East 5th Street, East Village, Manhattan Community Board 3, Manhattan, New York County, New York, 10009, United States"
394,E 9 St & Avenue C,40.72521311,-73.97768752,"Citi Bike - E 9 St & Avenue C, East 9th Street, East Village, Manhattan Community Board 3, Manhattan, New York County, New York, 10009, United States"
396,Lefferts Pl & Franklin Ave,40.680342423,-73.9557689392,"Citi Bike - Lefferts Pl & Franklin Ave, Lefferts Place, Brooklyn, Kings County, New York, 11216, United States"
396,Lefferts Pl & Franklin Ave,40.68,-73.956,"214, Lefferts Place, Prospect Heights, Brooklyn, Kings County, New York, 11238, United States"
397,Fulton St & Clermont Ave,40.68415748,-73.96922273,"Citi Bike - Fulton St & Clermont Ave, Fulton Street, Fort Greene, Brooklyn, Kings County, New York, 11207, United States"
398,Atlantic Ave & Furman St,40.69165183,-73.9999786,"Citi Bike - Atlantic Ave & Furman St, Columbia Street Greenway, Columbia Street Waterfront District, Brooklyn, Kings County, New York, 11231, United States"
399,Lafayette Ave & St James Pl,40.68851534,-73.9647628,"Citi Bike - Lafayette Ave & St James Pl, Saint James Place, Clinton Hill, Brooklyn, Kings County, New York, 11238, United States"
400,Pitt St & Stanton St,40.71926081,-73.98178024,"Citi Bike - Pitt St & Stanton St, Stanton Street, Lower East Side, Manhattan Community Board 3, Manhattan, New York County, New York, 10002-1013, United States"
401,Allen St & Rivington St,40.72019576,-73.98997825,"137, Allen Street, Lower East Side, Manhattan Community Board 3, Manhattan, New York County, New York, 10002, United States"
401,Allen St & Rivington St,40.719,-73.989,"Bank of America, Ludlow Street, Lower East Side, Manhattan Community Board 3, Manhattan, New York County, New York, 10002, United States"
402,Broadway & E 22 St,40.7403432,-73.98955109,"Citi Bike - Broadway & E 22 St, Broadway, Manhattan Community Board 5, Manhattan, New York County, New York, 10010, United States"
403,E 2 St & 2 Ave,40.72502876,-73.99069656,"Citi Bike - E 2 St & 2 Ave, East 2nd Street, East Village, Manhattan Community Board 3, Manhattan, New York County, New York, 10009, United States"
405,Washington St & Gansevoort St,40.739323,-74.008119,"Whitney Museum of American Art, 99, Gansevoort Street, Manhattan Community Board 2, Manhattan, New York County, New York, 10014, United States"
406,Hicks St & Montague St,40.69512845,-73.99595065,"Citi Bike - Hicks St & Montague St, Hicks Street, Brooklyn Heights, Brooklyn, Kings County, New York, 11201, United States"
407,Henry St & Poplar St,40.700469,-73.991454,"140, Cadman Plaza West, DUMBO, Brooklyn, Kings County, New York, 11201, United States"
408,Market St & Cherry St,40.71076228,-73.99400398,"Citi Bike, Market Street, Two Bridges, Manhattan Community Board 3, Manhattan, New York County, New York, 10002, United States"
409,DeKalb Ave & Skillman St,40.6906495,-73.95643107,"500, DeKalb Avenue, Fort Greene, Brooklyn, Kings County, New York, 11205, United States"
410,Suffolk St & Stanton St,40.72066442,-73.98517977,"Citi Bike - Suffolk St & Stanton St, Suffolk Street, Lower East Side, Manhattan Community Board 3, Manhattan, New York County, New York, 10002, United States"
411,E 6 St & Avenue D,40.72228087,-73.97668709,"Citi Bike - E 6 St & Avenue D, East 6th Street, East Village, Manhattan Community Board 3, Manhattan, New York County, New York, 10009:10010, United States"
411,E 6 St & Avenue D,40.722,-73.977,"58, Avenue D, East Village, Manhattan Community Board 3, Manhattan, New York County, New York, 10009, United States"
412,Forsyth St & Canal St,40.7158155,-73.99422366,"Citi Bike, Forsyth Street, Manhattan Community Board 3, Manhattan, New York County, New York, 10002, United States"
412,Forsyth St & Canal St,40.716,-73.995,"Chrystie Street, Chinatown, Manhattan, New York County, New York, 10002, United States"
414,Pearl St & Anchorage Pl,40.70281858,-73.98765762,"DUMBO Historic District Proposal, Brooklyn Bridge, DUMBO, Brooklyn, Kings County, New York, 11201-1832, United States"
415,Pearl St & Hanover Square,40.7047177,-74.00926027,"Citi Bike - Pearl St & Hanover Square, Pearl Street, Financial District, Manhattan Community Board 1, Manhattan, New York County, New York, 10038, United States"
416,Cumberland St & Lafayette Ave,40.68753406,-73.97265183,"Citi Bike - Cumberland St & Lafayette Ave, Cumberland Street, Fort Greene, Brooklyn, Kings County, New York, 11238, United States"
417,Barclay St & Church St,40.71291224,-74.01020234,"Citi Bike - Barclay St & Church St, Barclay Street, Tribeca, Manhattan Community Board 1, Manhattan, New York County, New York, 10007, United States"
418,Front St & Gold St,40.70224,-73.982578,"Citi Bike, Front Street, DUMBO, Brooklyn, Kings County, New York, 11201, United States"
419,Carlton Ave & Park Ave,40.69580705,-73.97355569,"Citi Bike, Carlton Avenue, Fort Greene, Brooklyn, Kings County, New York, 11205, United States"
420,Clermont Ave & Lafayette Ave,40.68764484,-73.96968902,"Citi Bike - Clermont Ave & Lafayette Ave, Clermont Avenue, Fort Greene, Brooklyn, Kings County, New York, 11238, United States"
421,Clermont Ave & Park Ave,40.69573398,-73.97129668,"Citi Bike, Clermont Avenue, Fort Greene, Brooklyn, Kings County, New York, 11238, United States"
422,W 59 St & 10 Ave,40.770513,-73.988038,"Citi Bike - W 59 St & 10 Ave, West 59th Street, Upper West Side, Manhattan Community Board 4, Manhattan, New York County, New York, 100, United States"
422,W 59 St & 10 Ave,40.77,-73.989,"512, West 58th Street, Hell's Kitchen, Manhattan, New York County, New York, 10019, United States"
423,W 54 St & 9 Ave,40.76584941,-73.98690506,"Citi Bike - W 54 St / 9 Ave, West 54th Street, Manhattan Community Board 4, Manhattan, New York County, New York, 10019, United States"
423,W 54 St & 9 Ave,40.767,-73.986,"860, 9th Avenue, Garment District, Hell's Kitchen, Manhattan, New York County, New York, 10019, United States"
426,West St & Chambers St,40.71754834,-74.01322069,"Citi Bike - West St & Chambers St, Hudson River Park Esplanade, Battery Park City, Manhattan Community Board 1, Manhattan, New York County, New York, 10282, United States"
426,West St & Chambers St,40.719,-74.013,"Harrison Street Basketball Court, Hudson River Park Esplanade, Battery Park City, Manhattan Community Board 1, Manhattan, New York County, New York, 10282, United States"
427,Bus Slip & State St,40.701907,-74.013942,"Citi Bike - State St / Battery Park, Peter Minuit Plaza, Financial District, Manhattan Community Board 1, Manhattan, New York County, New York, 10004, United States"
432,E 7 St & Avenue A,40.72621788,-73.98379855,"Citi Bike - E 7 St & Avenue A, East 7th Street, East Village, Manhattan Community Board 3, Manhattan, New York County, New York, 10009, United States"
432,E 7 St & Avenue A,40.725,-73.983,"518, East 6th Street, East Village, Manhattan Community Board 3, Manhattan, New York County, New York, 10009, United States"
434,9 Ave & W 18 St,40.74317449,-74.00366443,"Citi Bike - 9 Ave & W 18 St, 9th Avenue, Chelsea District, Manhattan, New York County, New York, 100014, United States"
434,9 Ave & W 18 St,40.743,-74.004,"9 Ave & 17 St, 9th Avenue, Chelsea District, Manhattan, New York County, New York, 10019, United States"
435,W 21 St & 6 Ave,40.74173969,-73.99415556,"Citi Bike - W 21 St & 6 Ave, West 21st Street, Chelsea District, Manhattan, New York County, New York, 10011, United States"
435,W 21 St & 6 Ave,40.743,-73.995,"147, West 22nd Street, Chelsea, Manhattan, New York County, New York, 10011, United States"
436,Hancock St & Bedford Ave,40.68216564,-73.95399026,"Citi Bike - Hancock St & Bedford Ave, Hancock Street, Brooklyn, Kings County, New York, 11233, United States"
437,Macon St & Nostrand Ave,40.6809833854,-73.9500479759,"Citi Bike - Macon St & Nostrand Ave, Macon Street, Bedford-Stuyvesant, Brooklyn, Kings County, New York, 11233, United States"
438,St Marks Pl & 1 Ave,40.72779126,-73.98564945,"Citi Bike - St Marks Pl & 1 Ave, Saint Mark's Place, East Village, Manhattan Community Board 3, Manhattan, New York County, New York, 10003, United States"
439,E 4 St & 2 Ave,40.7262807,-73.98978041,"Citi Bike - E 4 St & 2 Ave, East 4th Street, East Village, Manhattan Community Board 3, Manhattan, New York County, New York, 10009, United States"
440,E 45 St & 3 Ave,40.75255434,-73.97282625,"Citi Bike - E 45 St & 3 Ave, East 45th Street, Turtle Bay, Manhattan Community Board 6, Manhattan, New York County, New York, 10017, United States"
440,E 45 St & 3 Ave,40.752,-73.974,"696, 3rd Avenue, Turtle Bay, Manhattan Community Board 6, Manhattan, New York County, New York, 10017, United States"
441,E 52 St & 2 Ave,40.756014,-73.967416,"Citi Bike - E 52 St & 2 Ave, East 52nd Street, Turtle Bay, Manhattan Community Board 6, Manhattan, New York County, New York, 10022, United States"
442,W 27 St & 7 Ave,40.746647,-73.993915,"West 27th Street, Chelsea District, Manhattan, New York County, New York, 10001, United States"
443,Bedford Ave & S 9 St,40.70853074,-73.96408963,"Citi Bike - Bedford Ave & S 9 St, Bedford Avenue, Brooklyn, Kings County, New York, 11249, United States"
445,E 10 St & Avenue A,40.72740794,-73.98142006,"Citi Bike - E 10 St & Avenue A, East 10th Street, East Village, Manhattan Community Board 3, Manhattan, New York County, New York, 10009, United States"
445,E 10 St & Avenue A,40.728,-73.98,"535, East 11th Street, East Village, Manhattan Community Board 3, Manhattan, New York County, New York, 10009, United States"
446,W 24 St & 7 Ave,40.74487634,-73.99529885,"Citi Bike - W 24 St & 7 Ave, West 24th Street, Chelsea District, Manhattan, New York County, New York, 10011, United States"
447,8 Ave & W 52 St,40.76370739,-73.9851615,"Citi Bike - 8 Ave & W 52 St, 8th Avenue, Theater District, Manhattan Community Board 4, Manhattan, New York County, New York, 10019, United States"
447,8 Ave & W 52 St,40.764,-73.986,"Public School 58, 317, West 52nd Street, Theater District, Manhattan Community Board 4, Manhattan, New York County, New York, 10019, United States"
448,W 37 St & 10 Ave,40.75660359,-73.9979009,"Citi Bike - W 37 St & 10 Ave, West 37th Street, Manhattan Community Board 4, Manhattan, New York County, New York, 10018, United States"
448,W 37 St & 10 Ave,40.758,-73.998,"519, West 38th Street, Manhattan Community Board 4, Manhattan, New York County, New York, 10018, United States"
450,W 49 St & 8 Ave,40.76227205,-73.98788205,"Citi Bike - W 49 St & 8 Ave, West 49th Street, Theater District, Manhattan Community Board 4, Manhattan, New York County, New York, 10019, United States"
450,W 49 St & 8 Ave,40.761,-73.989,"328, West 47th Street, Theater District, Manhattan Community Board 4, Manhattan, New York County, New York, 10036, United States"
453,W 22 St & 8 Ave,40.74475148,-73.99915362,"Citi Bike - W 22 St & 8 Ave, West 22nd Street, Chelsea District, Manhattan, New York County, New York, 10011, United States"
453,W 22 St & 8 Ave,40.746,-73.998,"CVS Pharmacy, 272, 8th Avenue, Chelsea, Manhattan, New York County, New York, 10011, United States"
454,E 51 St & 1 Ave,40.75455731,-73.96592976,"Citi Bike - E 51 St & 1 Ave, East 51st Street, Turtle Bay, Manhattan Community Board 6, Manhattan, New York County, New York, 10022, United States"
455,1 Ave & E 44 St,40.75001986,-73.96905301,"Citi Bike - 1 Ave & E 44 St, 1st Avenue Tunnel, Turtle Bay, Manhattan Community Board 6, Manhattan, New York County, New York, 10017-6927, United States"
456,E 53 St & Madison Ave,40.7597108,-73.97402311,"Citi Bike - E 53 St & Madison Ave, East 53rd Street, Turtle Bay, Manhattan Community Board 5, Manhattan, New York County, New York, 10055, United States"
457,Broadway & W 58 St,40.76695317,-73.98169333,"Citi Bike - Broadway & W 58 St, Broadway, Manhattan Community Board 5, Manhattan, New York County, New York, 10019, United States"
458,11 Ave & W 27 St,40.751396,-74.005226,"La Colombe Coffee Roasters, 601, West 27th Street, Manhattan Community Board 4, Manhattan, New York County, New York, 10001, United States"
458,11 Ave & W 27 St,40.752,-74.004,"Avalon West Chelsea, 282, 11th Avenue, Chelsea, Manhattan, New York County, New York, 10001, United States"
459,W 20 St & 11 Ave,40.746745,-74.007756,"Citi Bike - W 20 St & 11 Ave, West 20th Street, Chelsea District, Manhattan, New York County, New York, 10011, United States"
459,W 20 St & 11 Ave,40.746,-74.007,"525, West 19th Street, Chelsea District, Manhattan, New York County, New York, 10011, United States"
460,S 4 St & Wythe Ave,40.71285887,-73.96590294,"Citi Bike - S 4 St & Wythe Ave, South 4th Street, Brooklyn, Kings County, New York, 11211, United States"
460,S 4 St & Wythe Ave,40.713,-73.965,"75, South 4th Street, Williamsburg, Brooklyn, Kings County, New York, 11249, United States"
461,E 20 St & 2 Ave,40.73587678,-73.98205027,"Citi Bike - E 20 St & 2 Ave, East 20th Street, Manhattan Community Board 6, Manhattan, New York County, New York, 10010, United States"
461,E 20 St & 2 Ave,40.737,-73.983,"224, East 21st Street, Manhattan Community Board 6, Manhattan, New York County, New York, 10010, United States"
462,W 22 St & 10 Ave,40.74691959,-74.00451887,"Citi Bike - W 22 St & 10 Ave, West 22nd Street, Chelsea District, Manhattan, New York County, New York, 10011, United States"
464,E 56 St & 3 Ave,40.75934501,-73.96759673,"201, East 56th Street, Manhattan Community Board 6, Manhattan, New York County, New York, 10022, United States"
465,Broadway & W 41 St,40.75513557,-73.98658032,"42nd Street–Times Square–Port Authority Bus Terminal, 8th Avenue, Theater District, Manhattan Community Board 5, Manhattan, New York County, New York, 10036, United States"
466,W 25 St & 6 Ave,40.74395411,-73.99144871,"Citi Bike - W 25 St & 6 Ave, West 25th Street, Flatiron District, Manhattan, New York County, New York, 10001, United States"
467,Dean St & 4 Ave,40.68312489,-73.97895137,"Citi Bike - Dean St & 4 Ave, Dean Street, Park Slope, Brooklyn, Kings County, New York, 11213, United States"
468,Broadway & W 56 St,40.7652654,-73.98192338,"Citi Bike - Broadway & W 55 St, West 56th Street, Midtown, Manhattan Community Board 5, Manhattan, New York County, New York, 10019, United States"
468,Broadway & W 56 St,40.764,-73.983,"236, West 54th Street, Theater District, Manhattan Community Board 5, Manhattan, New York County, New York, 10019, United States"
469,Broadway & W 53 St,40.76344058,-73.98268129,"Citi Bike - Broadway & W 53 St, West 53rd Street, Theater District, Manhattan Community Board 5, Manhattan, New York County, New York, 10019, United States"
470,W 20 St & 8 Ave,40.74345335,-74.00004031,"Citi Bike - W 20 St & 8 Ave, West 20th Street, Chelsea District, Manhattan, New York County, New York, 10011, United States"
471,Grand St & Havemeyer St,40.71286844,-73.95698119,"Citi Bike, Grand Street, Williamsburg, Brooklyn, Kings County, New York, 11211, United States"
472,E 32 St & Park Ave,40.7457121,-73.98194829,"Citi Bike - E 32 St & Park Ave, East 32nd Street, Midtown South, Manhattan Community Board 5, Manhattan, New York County, New York, 10016, United States"
472,E 32 St & Park Ave,40.746,-73.983,"38, East 32nd Street, Midtown South, Manhattan Community Board 5, Manhattan, New York County, New York, 10016, United States"
473,Rivington St & Chrystie St,40.72110063,-73.9919254,"M’Finda Kalunga Garden, Chrystie Street, Lower East Side, Manhattan Community Board 3, Manhattan, New York County, New York, 10012-3332, United States"
474,5 Ave & E 29 St,40.7451677,-73.98683077,"Citi Bike - 5 Ave & E 29 St, 5th Avenue, Midtown South, Manhattan Community Board 5, Manhattan, New York County, New York, 10035, United States"
474,5 Ave & E 29 St,40.746,-73.986,"Valley Bank, 295, 5th Avenue, Midtown South, Manhattan Community Board 5, Manhattan, New York County, New York, 10035, United States"
476,E 31 St & 3 Ave,40.74394314,-73.97966069,"Citi Bike - E 31 St & 3 Ave, East 31st Street, Kips Bay, Manhattan Community Board 6, Manhattan, New York County, New York, 10016, United States"
476,E 31 St & 3 Ave,40.743,-73.98,"Future Village Farm Inc, 425, 3rd Avenue, Kips Bay, Manhattan Community Board 6, Manhattan, New York County, New York, 10016, United States"
477,W 41 St & 8 Ave,40.75640548,-73.9900262,"Citi Bike - W 41 St & 8 Ave, West 41st Street, Theater District, Manhattan Community Board 5, Manhattan, New York County, New York, 10036, United States"
477,W 41 St & 8 Ave,40.755,-73.989,"New York Elegant Fabrics, 222, West 40th Street, Garment District, Manhattan Community Board 5, Manhattan, New York County, New York, 10018, United States"
478,11 Ave & W 41 St,40.76030096,-73.99884222,"Citi Bike - 11 Ave & W 41 St, 11th Avenue, Hell's Kitchen, Manhattan, New York County, New York, 10018, United States"
478,11 Ave & W 41 St,40.761,-73.998,"Riverbank West, 560, West 43rd Street, Manhattan Community Board 4, Manhattan, New York County, New York, 10036, United States"
479,9 Ave & W 45 St,40.76019252,-73.9912551,"Citi Bike - 9 Ave & W 45 St, 9th Avenue, Garment District, Hell's Kitchen, Manhattan, New York County, New York, 100036, United States"
479,9 Ave & W 45 St,40.761,-73.992,"415, West 45th Street, Manhattan Community Board 4, Manhattan, New York County, New York, 10036, United States"
480,W 53 St & 10 Ave,40.76669671,-73.99061728,"Citi Bike - W 53 St & 10 Ave, West 53rd Street, Theater District, Manhattan Community Board 4, Manhattan, New York County, New York, 10019, United States"
480,W 53 St & 10 Ave,40.767,-73.992,"526, West 53rd Street, Theater District, Manhattan Community Board 4, Manhattan, New York County, New York, 10019, United States"
481,S 3 St & Bedford Ave,40.71260486,-73.96264403,"Citi Bike - S 3 St & Bedford Ave, South 3rd Street, Williamsburg, Brooklyn, Kings County, New York, 11211, United States"
481,S 3 St & Bedford Ave,40.713,-73.962,"319, Bedford Avenue, Williamsburg, Brooklyn, Kings County, New York, 11211, United States"
482,W 15 St & 7 Ave,40.73935542,-73.99931783,"Citi Bike - W 15 St & 7 Ave, West 15th Street, Chelsea District, Manhattan, New York County, New York, 10011, United States"
482,W 15 St & 7 Ave,40.74,-73.998,"154, West 17th Street, Chelsea District, Manhattan, New York County, New York, 10011, United States"
483,E 12 St & 3 Ave,40.73223272,-73.98889957,"Citi Bike - E 12 St & 3 Ave, East 12th Street, East Village, Manhattan Community Board 3, Manhattan, New York County, New York, 10009, United States"
484,W 44 St & 5 Ave,40.75500254,-73.98014437,"530 5th Avenue, 530, 5th Avenue, Midtown, Manhattan Community Board 5, Manhattan, New York County, New York, 10036, United States"
485,W 37 St & 5 Ave,40.75038009,-73.98338988,"Citi Bike - W 37 St & 5 Ave, West 37th Street, Midtown South, Manhattan Community Board 5, Manhattan, New York County, New York, 10018, United States"
485,W 37 St & 5 Ave,40.749,-73.983,"200 Madison Avenue, 200, Madison Avenue, Midtown South, Manhattan Community Board 5, Manhattan, New York County, New York, 10016, United States"
486,Broadway & W 29 St,40.7462009,-73.98855723,"Citi Bike - Broadway & W 29 St, Broadway, Midtown South, Manhattan Community Board 5, Manhattan, New York County, New York, 10019, United States"
487,E 20 St & FDR Drive,40.73314259,-73.97573881,"Citi Bike - E 20 St & FDR Drive, East 20th Street, Manhattan Community Board 6, Manhattan, New York County, New York, 10009:10010, United States"
487,E 20 St & FDR Drive,40.734,-73.977,"511, East 20th Street, Stuy Town, Manhattan, New York County, New York, 10010, United States"
488,W 39 St & 9 Ave,40.75645824,-73.99372222,"Citi Bike - W 39 St & 9 Ave, West 39th Street, Garment District, Manhattan Community Board 4, Manhattan, New York County, New York, 10018, United States"
489,10 Ave & W 28 St,40.75066386,-74.00176802,"Chelsea Park, West 28th Street, Chelsea District, Manhattan, New York County, New York, 10001, United States"
490,8 Ave & W 33 St,40.751551,-73.993934,"34th Street - Penn Station, West 33rd Street, Chelsea District, Manhattan, New York County, New York, 10001, United States"
490,8 Ave & W 33 St,40.752,-73.995,"The Olivia, West 33rd Street, Manhattan Community Board 4, Manhattan, New York County, New York, 10001, United States"
491,E 24 St & Park Ave S,40.74096374,-73.98602213,"Citi Bike - E 24 St & Park Ave S, East 24th Street, Manhattan Community Board 5, Manhattan, New York County, New York, 10010, United States"
491,E 24 St & Park Ave S,40.74,-73.986,"108, East 23rd Street, Manhattan Community Board 5, Manhattan, New York County, New York, 10010, United States"
492,W 33 St & 7 Ave,40.75019995,-73.99093085,"Pennsylvania Station, West 35th Street, Garment District, Manhattan Community Board 5, Manhattan, New York County, New York, 10001, United States"
493,W 45 St & 6 Ave,40.7568001,-73.98291153,"Citi Bike - W 45 St & 6 Ave, West 45th Street, Theater District, Manhattan Community Board 5, Manhattan, New York County, New York, 10036, United States"
494,W 26 St & 8 Ave,40.74734825,-73.99723551,"Citi Bike - W 26 St & 8 Ave, 8th Avenue, West Village, Chelsea, Manhattan, New York County, New York, 10017, United States"
494,W 26 St & 8 Ave,40.746,-73.998,"CVS Pharmacy, 272, 8th Avenue, Chelsea, Manhattan, New York County, New York, 10011, United States"
495,W 47 St & 10 Ave,40.76269882,-73.99301222,"Citi Bike - W 47 St & 10 Ave, West 47th Street, Theater District, Manhattan Community Board 4, Manhattan, New York County, New York, 10036, United States"
496,E 16 St & 5 Ave,40.73726186,-73.99238967,"Citi Bike - E 16 St & 5 Ave, East 16th Street, Union Square, Manhattan Community Board 5, Manhattan, New York County, New York, 10003, United States"
496,E 16 St & 5 Ave,40.737,-73.992,"The New School, East 16th Street, Union Square, Manhattan Community Board 5, Manhattan, New York County, New York, 10003, United States"
497,E 17 St & Broadway,40.73704984,-73.99009296,"Citi Bike - E 17 St & Broadway, East 17th Street, Union Square, Manhattan Community Board 5, Manhattan, New York County, New York, 10010, United States"
497,E 17 St & Broadway,40.737,-73.989,"McKinsey & Company New York Experience Studio, 215, Park Avenue South, Union Square, Manhattan Community Board 5, Manhattan, New York County, New York, 10003, United States"
498,Broadway & W 32 St,40.74854862,-73.98808416,"34th Street–Herald Square, PATH - 33rd Street entrance (closed), Chelsea District, Manhattan, New York County, New York, 10001-2062, United States"
499,Broadway & W 60 St,40.76915505,-73.98191841,"Citi Bike - Broadway & W 60 St, Broadway, Manhattan Community Board 7, Manhattan, New York County, New York, 10034, United States"
499,Broadway & W 60 St,40.77,-73.983,"The Beaumont, 30, West 61st Street, Manhattan Community Board 7, Manhattan, New York County, New York, 10023, United States"
500,Broadway & W 51 St,40.76228826,-73.98336183,"50th Street, West 51st Street, Theater District, Manhattan Community Board 5, Manhattan, New York County, New York, 10019, United States"
500,Broadway & W 51 St,40.761,-73.983,"159, West 50th Street, Theater District, Manhattan Community Board 5, Manhattan, New York County, New York, 10019, United States"
501,FDR Drive & E 35 St,40.744219,-73.97121214,"Citi Bike - FDR Drive & E 35 St, East River Esplanade, Murray Hill, Manhattan Community Board 6, Manhattan, New York County, New York, 10017-6927, United States"
502,Henry St & Grand St,40.714215,-73.981346,"Citi Bike - Grand Street / Henry Street, Henry Street, Lower East Side, Manhattan Community Board 3, Manhattan, New York County, New York, 10002, United States"
502,Henry St & Grand St,40.714211,-73.981095,"Citi Bike - Grand Street / Henry Street, Henry Street, Lower East Side, Manhattan Community Board 3, Manhattan, New York County, New York, 10002, United States"
503,E 20 St & Park Ave,40.73827428,-73.98751968,"Citi Bike - E 20 St & Park Ave, East 20th Street, Gramercy, Manhattan, New York County, New York, 10003, United States"
503,E 20 St & Park Ave,40.737,-73.989,"McKinsey & Company New York Experience Studio, 215, Park Avenue South, Union Square, Manhattan Community Board 5, Manhattan, New York County, New York, 10003, United States"
504,1 Ave & E 16 St,40.73221853,-73.98165557,"Citi Bike - 1 Ave & E 15 St, 1st Avenue, Manhattan Community Board 6, Manhattan, New York County, New York, 10009, United States"
504,1 Ave & E 16 St,40.731,-73.983,"227, 1st Avenue, East Village, Manhattan Community Board 3, Manhattan, New York County, New York, 10003, United States"
504,1 Ave & E 16 St [temporarily removed],40.73221853,-73.98165557,"Citi Bike - 1 Ave & E 15 St, 1st Avenue, Manhattan Community Board 6, Manhattan, New York County, New York, 10009, United States"
505,6 Ave & W 33 St,40.74901271,-73.98848395,"34th Street - Herald Square (B,D,F,M), 6th Avenue, Manhattan Community Board 5, Manhattan, New York County, New York, 10019, United States"
505,6 Ave & W 33 St,40.749,-73.989,"Manhattan Mall, 100, West 33rd Street, Manhattan Community Board 5, Manhattan, New York County, New York, 10001, United States"
507,E 25 St & 2 Ave,40.73912601,-73.97973776,"Citi Bike - E 25 St & 2 Ave, East 25th Street, Kips Bay, Manhattan Community Board 6, Manhattan, New York County, New York, 10010, United States"
507,E 25 St & 2 Ave,40.74,-73.98,"242, East 26th Street, Kips Bay, Manhattan Community Board 6, Manhattan, New York County, New York, 10010, United States"
508,W 46 St & 11 Ave,40.76341379,-73.99667444,"Citi Bike - W 46 St & 11 Av, West 46th Street, Manhattan Community Board 4, Manhattan, New York County, New York, 10036, United States"
508,W 46 St & 11 Ave,40.764,-73.998,"639, West 46th Street, Manhattan Community Board 4, Manhattan, New York County, New York, 10036, United States"
509,9 Ave & W 22 St,40.7454973,-74.00197139,"Citi Bike - 9 Ave & W 22 St, 9th Avenue, Chelsea District, Manhattan, New York County, New York, 100014, United States"
509,9 Ave & W 22 St,40.746,-74.001,"360, West 23rd Street, Chelsea District, Manhattan, New York County, New York, 10011, United States"
510,W 51 St & 6 Ave,40.7606597,-73.98042047,"Rockefeller Center, 45, Rockefeller Plaza, Midtown, Manhattan Community Board 5, Manhattan, New York County, New York, 10111, United States"
513,W 56 St & 10 Ave,40.768254,-73.988639,"455, West 56th Street, Midtown, Manhattan Community Board 4, Manhattan, New York County, New York, 10019, United States"
513,W 56 St & 10 Ave,40.767,-73.989,"443, West 54th Street, Manhattan Community Board 4, Manhattan, New York County, New York, 10019, United States"
514,12 Ave & W 40 St,40.76087502,-74.00277668,"Citi Bike, Hudson River Park Esplanade, Hudson Yards, Manhattan, New York County, New York, 100036, United States"
514,12 Ave & W 40 St,40.761,-74.004,"Lincoln Tunnel, Manhattan Community Board 4, Manhattan, New York County, Weehawken, Hudson County, New Jersey, 100036, United States"
515,W 43 St & 10 Ave,40.76009437,-73.99461843,"Citi Bike - W 43 St & 10 Ave, West 43rd Street, Manhattan Community Board 4, Manhattan, New York County, New York, 10036, United States"
515,W 43 St & 10 Ave,40.761,-73.995,"502, West 44th Street, Manhattan Community Board 4, Manhattan, New York County, New York, 10036, United States"
516,E 47 St & 1 Ave,40.75206862,-73.96784384,"Citi Bike - E 47 St & 1 Ave, Dag Hammarskjold Plaza, Turtle Bay, Manhattan Community Board 6, Manhattan, New York County, New York, 10017-6927, United States"
516,E 47 St & 1 Ave,40.752,-73.968,"Citi Bike - E 47 St & 1 Ave, Dag Hammarskjold Plaza, Turtle Bay, Manhattan Community Board 6, Manhattan, New York County, New York, 10017-6927, United States"
517,Pershing Square South,40.751581,-73.97791,"Citi Bike - Pershing Square South, Park Avenue, Murray Hill, Manhattan Community Board 5, Manhattan, New York County, New York, 10037, United States"
517,Pershing Square South,40.752,-73.977,"Grand Central Terminal, Vanderbilt Avenue, Manhattan Community Board 5, Manhattan, New York County, New York, 10017, United States"
518,E 39 St & 2 Ave,40.74780373,-73.9734419,"Citi Bike - E 39 St & 2 Ave, East 39th Street, Murray Hill, Manhattan Community Board 6, Manhattan, New York County, New York, 10016, United States"
518,E 39 St & 2 Ave,40.749,-73.974,"222, East 41st Street, Murray Hill, Manhattan Community Board 6, Manhattan, New York County, New York, 10017, United States"
519,Pershing Square North,40.751873,-73.977706,"Citi Bike - Pershing Square North, Park Avenue, Murray Hill, Manhattan Community Board 5, Manhattan, New York County, New York, 10037, United States"
519,Pershing Square North,40.752,-73.977,"Grand Central Terminal, Vanderbilt Avenue, Manhattan Community Board 5, Manhattan, New York County, New York, 10017, United States"
520,W 52 St & 5 Ave,40.75992262,-73.97648516,"Citi Bike - W 52 St & 5 Ave, West 52nd Street, Midtown, Manhattan Community Board 5, Manhattan, New York County, New York, 10019, United States"
520,W 52 St & 5 Ave,40.761,-73.977,"9, West 53rd Street, Midtown, Manhattan Community Board 5, Manhattan, New York County, New York, 10019, United States"
522,E 51 St & Lexington Ave,40.75714758,-73.97207836,"Citi Bike - E 51 St / Lexington Ave, East 51st Street, Turtle Bay, Manhattan Community Board 5, Manhattan, New York County, New York, 10022, United States"
523,W 38 St & 8 Ave,40.75466591,-73.99138152,"Citi Bike - W 38 St & 8 Ave, West 38th Street, Garment District, Manhattan Community Board 5, Manhattan, New York County, New York, 10018, United States"
523,W 38 St & 8 Ave,40.755,-73.992,"Nepenthes New York, 307, West 38th Street, Garment District, Manhattan Community Board 4, Manhattan, New York County, New York, 10018, United States"
524,W 43 St & 6 Ave,40.75527307,-73.98316936,"Midtown, Manhattan Community Board 5, Manhattan, New York County, New York, United States"
525,W 34 St & 11 Ave,40.75594159,-74.0021163,"Citi Bike - W 34 St / 11 Ave, West 34th Street, Hudson Yards, Manhattan, New York County, New York, 10001, United States"
525,W 34 St & 11 Ave,40.755,-74.001,"34 Street - Hudson Yards entrance, Manhattan Community Board 4, Manhattan, New York County, New York, 10199, United States"
526,E 33 St & 5 Ave,40.74765947,-73.98490707,"Citi Bike - E 33 St & 5 Ave, East 33rd Street, Midtown South, Manhattan Community Board 5, Manhattan, New York County, New York, 10016, United States"
526,E 33 St & 5 Ave,40.749,-73.986,"Human Rights Watch, 350 5th Ave, West 34th Street, Midtown South, Manhattan Community Board 5, Manhattan, New York County, New York, 10118, United States"
528,2 Ave & E 31 St,40.74290902,-73.97706058,"Citi Bike - 2 Ave & E 31 St, East 31st Street, Kips Bay, Manhattan Community Board 6, Manhattan, New York County, New York, 10016, United States"
528,2 Ave & E 31 St,40.743,-73.977,"USPS, 2nd Avenue, Kips Bay, Manhattan Community Board 6, Manhattan, New York County, New York, 10016, United States"
529,W 42 St & 8 Ave,40.7575699,-73.99098507,"Port Authority Bus Terminal, 625, 8th Avenue, Theater District, Manhattan Community Board 4, Manhattan, New York County, New York, 100036, United States"
530,11 Ave & W 59 St,40.77149671054441,-73.99046033620834,"John Jay College of Criminal Justice, West 59th Street, Upper West Side, Manhattan Community Board 4, Manhattan, New York County, New York, 100, United States"
530,11 Ave & W 59 St,40.77,-73.989,"512, West 58th Street, Hell's Kitchen, Manhattan, New York County, New York, 10019, United States"
531,Forsyth St & Broome St,40.71893904,-73.99266288,"Citi Bike - Forsyth St & Broome St, Broome Street, Lower East Side, Manhattan Community Board 3, Manhattan, New York County, New York, 10002, United States"
532,S 5 Pl & S 5 St,40.710451,-73.960876,"Citi Bike - S 5 St / Williamsburg Br Bike Path, South 5th Place, Williamsburg, Brooklyn, Kings County, New York, 11249, United States"
533,Broadway & W 38 St,40.75299641,-73.98721619,"Citi Bike - Broadway & W 39 St, Broadway, Garment District, Manhattan Community Board 5, Manhattan, New York County, New York, 10019, United States"
534,Water - Whitehall Plaza,40.70255065,-74.0127234,"Citi Bike - Water - Whitehall Plaza, Water Street, Financial District, Manhattan Community Board 1, Manhattan, New York County, New York, 10004, United States"
536,1 Ave & E 30 St,40.74144387,-73.97536082,"Citi Bike - 1 Ave & E 30 St, 1st Avenue, Kips Bay, Manhattan Community Board 6, Manhattan, New York County, New York, 10017-6927, United States"
536,1 Ave & E 30 St,40.74,-73.974,"430, East 29th Street, Kips Bay, Manhattan Community Board 6, Manhattan, New York County, New York, 10016, United States"
537,Lexington Ave & E 24 St,40.74025878,-73.98409214,"Citi Bike - Lexington Ave & E 24 St, Lexington Avenue, Kips Bay, Manhattan Community Board 6, Manhattan, New York County, New York, 10037, United States"
539,Metropolitan Ave & Bedford Ave,40.71534825,-73.96024116,"Citi Bike - Metropolitan Av / Bedford Av, Bedford Avenue, Greenpoint, Brooklyn, Kings County, New York, 11249, United States"
540,Lexington Ave & E 29 St,40.74311555376486,-73.98215353488922,"Citi Bike - Lexington Ave & E 29 St, Lexington Avenue, Kips Bay, Manhattan Community Board 5, Manhattan, New York County, New York, 10037, United States"
540,Lexington Ave & E 29 St,40.743,-73.983,"107, East 28th Street, Rose Hill, Manhattan Community Board 5, Manhattan, New York County, New York, 10016, United States"
540,Lexington Ave & E 29 St [temporarily removed],40.74311555376486,-73.98215353488922,"Citi Bike - Lexington Ave & E 29 St, Lexington Avenue, Kips Bay, Manhattan Community Board 5, Manhattan, New York County, New York, 10037, United States"
545,E 23 St & 1 Ave,40.736502,-73.97809472,"Citi Bike - E 23 St & 1 Ave, East 23rd Street, Stuy Town, Manhattan, New York County, New York, 10010, United States"
545,E 23 St & 1 Ave,40.737,-73.977,"Veteran Affairs New York Harbor Healthcare System, Asser Levy Place, Kips Bay, Manhattan Community Board 6, Manhattan, New York County, New York, 10016, United States"
546,E 30 St & Park Ave S,40.74444921,-73.98303529,"Citi Bike - E 30 St & Park Ave S, East 30th Street, Midtown South, Manhattan Community Board 5, Manhattan, New York County, New York, 10016, United States"
546,E 30 St & Park Ave S,40.743,-73.983,"107, East 28th Street, Rose Hill, Manhattan Community Board 5, Manhattan, New York County, New York, 10016, United States"
2000,Front St & Washington St,40.70255088,-73.98940236,"DUMBO Historic District Proposal, Brooklyn Bridge, DUMBO, Brooklyn, Kings County, New York, 11201-1832, United States"
2000,Front St & Washington St,40.704,-73.989,"Manhattan Bridge, Brooklyn Bridge, DUMBO, Brooklyn, Kings County, New York, 11201-1832, United States"
2002,Wythe Ave & Metropolitan Ave,40.716887,-73.963198,"Citi Bike - Wythe Ave & Metropolitan Ave, Wythe Avenue, Greenpoint, Brooklyn, Kings County, New York, 11211, United States"
2002,Wythe Ave & Metropolitan Ave,40.716,-73.962,"149, Metropolitan Avenue, Williamsburg, Brooklyn, Kings County, New York, 11249, United States"
2003,1 Ave & E 18 St,40.733812191966315,-73.98054420948029,"Citi Bike - 1 Ave & E 18 St, 1st Avenue service road, Manhattan Community Board 6, Manhattan, New York County, New York, 10009, United States"
2003,1 Ave & E 18 St [temporarily removed],40.733812191966315,-73.98054420948029,"Citi Bike - 1 Ave & E 18 St, 1st Avenue service road, Manhattan Community Board 6, Manhattan, New York County, New York, 10009, United States"
2005,Railroad Ave & Kay Ave,40.70531194,-73.97100056,"Citi Bike, Railroad Avenue, Brooklyn Navy Yard, Brooklyn, Kings County, New York, 11251, United States"
2006,Central Park S & 6 Ave,40.76590936,-73.97634151,"Citi Bike - Central Park S & 6 Ave, Central Park Outer Loop, Manhattan, New York County, New York, 10106, United States"
2006,Central Park S & 6 Ave,40.767,-73.977,"Center Drive, Midtown, Manhattan, New York County, New York, 10106, United States"
2008,Little West St & 1 Pl,40.70569254,-74.01677685,"Citi Bike - Little West St & 1 Pl, 1st Place, Battery Park City, Manhattan Community Board 1, Manhattan, New York County, New York, 10280, United States"
2008,Little West St & 1 Pl,40.707,-74.016,"West Street, Battery Park City, Manhattan Community Board 1, Manhattan, New York County, New York, 10280, United States"
2009,Catherine St & Monroe St,40.71117444,-73.99682619,"Citi Bike - Catherine Street & Monroe Street, Catherine Street, Two Bridges, Manhattan Community Board 3, Manhattan, New York County, New York, 10038, United States"
2009,Catherine St & Monroe St,40.71,-73.998,"10, Catherine Slip, Two Bridges, Manhattan Community Board 3, Manhattan, New York County, New York, 10038, United States"
2010,Grand St & Greene St,40.72165481,-74.00234737,"Citi Bike - Grand St & Greene St, Grand Street, Manhattan Community Board 2, Manhattan, New York County, New York, 10013, United States"
2010,Grand St & Greene St,40.72170005235607,-74.00238141417502,"Citi Bike - Grand St & Greene St, Grand Street, Manhattan Community Board 2, Manhattan, New York County, New York, 10013, United States"
2012,E 27 St & 1 Ave,40.739445,-73.976806,"445, 1st Avenue, Kips Bay, Manhattan Community Board 6, Manhattan, New York County, New York, 10016, United States"
2017,E 43 St & 2 Ave,40.75022392,-73.97121414,"305, East 43rd Street, Turtle Bay, Manhattan Community Board 6, Manhattan, New York County, New York, 10017, United States"
2021,W 45 St & 8 Ave,40.75929124,-73.98859651,"Citi Bike - W 45 St & 8 Ave, West 45th Street, Theater District, Hell's Kitchen, Manhattan, New York County, New York, 10036, United States"
2022,E 60 St & York Ave,40.759107,-73.959223,"Citi Bike - E 60 St & York Ave, York Avenue, Upper East Side, Manhattan, New York County, New York, 10155, United States"
2022,E 60 St & York Ave,40.758,-73.959,"FDR Drive, Lenox Hill, Manhattan, New York County, New York, 10155, United States"
2023,E 55 St & Lexington Ave,40.75968085,-73.97031366,"Central Synagogue, East 55th Street, Manhattan Community Board 5, Manhattan, New York County, New York, 10022, United States"
3002,South End Ave & Liberty St,40.711512,-74.015756,"Citi Bike - South End Ave & Liberty St, Liberty Street, Battery Park City, Manhattan Community Board 1, Manhattan, New York County, New York, 10005, United States"
3016,Kent Ave & N 7 St,40.72036775298455,-73.96165072917938,"117, Kent Avenue, Williamsburg, Brooklyn, Kings County, New York, 11249, United States"
3040,Handlebar @ Gowanus,40.66979964220026,-73.99497985839844,"South Slope Auto Center, 101, 13th Street, Park Slope, Brooklyn, Kings County, New York, 11215, United States"
3041,Kingston Ave & Herkimer St,40.67890679,-73.94142771,"31, Kingston Avenue, Bedford-Stuyvesant, Brooklyn, Kings County, New York, 11213, United States"
3042,Fulton St & Utica Ave,40.6794268,-73.9298911,"Utica Avenue, Fulton Street, Bedford-Stuyvesant, Brooklyn, Kings County, New York, 11207, United States"
3043,Lewis Ave & Decatur St,40.6814598,-73.934903,"The Pantry, Lewis Avenue, BEDFORD STUYVESANT/ EXPANDED STUYVEVSANT HEIGHTS HISTORIC DISTRICT, Brooklyn, Kings County, New York, 11206, United States"
3044,Albany Ave & Fulton St,40.6800105,-73.938475,"32, Albany Avenue, BEDFORD STUYVESANT/ EXPANDED STUYVEVSANT HEIGHTS HISTORIC DISTRICT, Brooklyn, Kings County, New York, 11216, United States"
3046,Marcus Garvey Blvd & Macon St,40.682601,-73.938037,"Citi Bike, Marcus Garvey Boulevard, BEDFORD STUYVESANT/ EXPANDED STUYVEVSANT HEIGHTS HISTORIC DISTRICT, Brooklyn, Kings County, New York, 11216, United States"
3046,Marcus Garvey Blvd & Macon St    [temporarily removed],40.682601,-73.938037,"Citi Bike, Marcus Garvey Boulevard, BEDFORD STUYVESANT/ EXPANDED STUYVEVSANT HEIGHTS HISTORIC DISTRICT, Brooklyn, Kings County, New York, 11216, United States"
3047,Halsey St & Tompkins Ave,40.6823687,-73.944118,"Halsey Street & Tompkins Avenue, Halsey Street, BEDFORD STUYVESANT/ EXPANDED STUYVEVSANT HEIGHTS HISTORIC DISTRICT, Brooklyn, Kings County, New York, 11233, United States"
3047,Halsey St & Tompkins Ave,40.683,-73.944,"414, Tompkins Avenue, Bedford-Stuyvesant, Brooklyn, Kings County, New York, 11216, United States"
3048,Putnam Ave & Nostrand Ave,40.68402,-73.94977,"280, Putnam Avenue, Bedford-Stuyvesant, Brooklyn, Kings County, New York, 11216, United States"
3049,Cambridge Pl & Gates Ave,40.68488,-73.96304,"73, Cambridge Place, Clinton Hill, Brooklyn, Kings County, New York, 11238, United States"
3050,Putnam Ave & Throop Ave,40.6851532,-73.94111,"Citi Bike, Putnam Avenue, Bedford-Stuyvesant, Brooklyn, Kings County, New York, 11221, United States"
3052,Lewis Ave & Madison St,40.686312,-73.935775,"280, Lewis Avenue, BEDFORD STUYVESANT/ EXPANDED STUYVEVSANT HEIGHTS HISTORIC DISTRICT, Brooklyn, Kings County, New York, 11221, United States"
3053,Marcy Ave & Lafayette Ave,40.6900815,-73.947915,"661, Lafayette Avenue, Brooklyn, Kings County, New York, 11216, United States"
3054,Greene Ave & Throop Ave,40.6894932,-73.942061,"665, Greene Avenue, Bedford-Stuyvesant, Brooklyn, Kings County, New York, 11221, United States"
3055,Greene Ave & Nostrand Ave,40.6883337,-73.950916,"498, Greene Avenue, Bedford-Stuyvesant, Brooklyn, Kings County, New York, 11216, United States"
3056,Kosciuszko St & Nostrand Ave,40.69072549,-73.95133465,"89, Kosciuszko Street, Brooklyn, Kings County, New York, 11216, United States"
3056,Kosciuszko St & Nostrand Ave,40.692,-73.95,"40, Pulaski Street, Brooklyn, Kings County, New York, 11206, United States"
3057,Kosciuszko St & Tompkins Ave,40.69128258,-73.9452416,"238, Kosciuszko Street, Brooklyn, Kings County, New York, 11221, United States"
3057,Kosciuszko St & Tompkins Ave,40.692,-73.944,"804, DeKalb Avenue, Brooklyn, Kings County, New York, 11221, United States"
3058,Lewis Ave & Kosciuszko St,40.69237074,-73.93705428,"430, Kosciuszko Street, Brooklyn, Kings County, New York, 11221, United States"
3059,Pulaski St & Marcus Garvey Blvd,40.6933982,-73.939877,"Citi Bike, Pulaski Street, Brooklyn, Kings County, New York, 11221, United States"
3060,Willoughby Ave & Tompkins Ave,40.69425403,-73.94626915,"Citi Bike - Willoughby Ave & Tompkins Ave, Willoughby Avenue, Brooklyn, Kings County, New York, 11221, United States"
3061,Throop Ave & Myrtle Ave,40.69622937,-73.94371094,"220, Throop Avenue, BEDFORD STUYVESANT/ EXPANDED STUYVEVSANT HEIGHTS HISTORIC DISTRICT, Brooklyn, Kings County, New York, 11206, United States"
3062,Myrtle Ave & Marcy Ave,40.69539817,-73.94954908,"Citi Bike, Myrtle Avenue, Clinton Hill, Brooklyn, Kings County, New York, 11237, United States"
3062,Myrtle Ave & Marcy Ave,40.695,-73.95,"802, Myrtle Avenue, Clinton Hill, Brooklyn, Kings County, New York, 11206, United States"
3063,Nostrand Ave & Myrtle Ave,40.69527008,-73.95238108,"Citi Bike, Nostrand Avenue, Brooklyn, Kings County, New York, 11235, United States"
3064,Myrtle Ave & Lewis Ave,40.69681963,-73.93756926,"Citi Bike, Myrtle Avenue, Brooklyn, Kings County, New York, 11237, United States"
3065,Union Ave & Wallabout St,40.70029511,-73.95032283,"Citi Bike, Union Avenue, Brooklyn, Kings County, New York, 11211, United States"
3066,Tompkins Ave & Hopkins St,40.69957608,-73.94708417,"Citi Bike, Tompkins Avenue, Brooklyn, Kings County, New York, 11216, United States"
3067,Broadway & Whipple St,40.7016657,-73.9437303,"Citi Bike - Broadway & Whipple Street, Broadway, Brooklyn, Kings County, New York, 11207, United States"
3068,Humboldt St & Varet St,40.7031724,-73.940636,"Citi Bike - Humboldt Street & Varet Street, Humboldt Street, Brooklyn, Kings County, New York, 11211, United States"
3069,Lorimer St & Broadway,40.70411791,-73.94818595,"Citi Bike - Lorimer St & Broadway, Throop Avenue, Brooklyn, Kings County, New York, 11221, United States"
3070,McKibbin St & Manhattan Ave,40.70510918,-73.94407279,"Citi Bike - McKibbin St & Manhattan Ave, McKibbin Street, Brooklyn, Kings County, New York, 11206, United States"
3071,Boerum St & Broadway,40.70538077,-73.94976519,"Citi Bike - Boerum St & Broadway, Boerum Street, Brooklyn, Kings County, New York, 11206, United States"
3072,Leonard St & Boerum St,40.70583339,-73.94644578,"Citi Bike - Leonard St & Boerum St, Leonard Street, Brooklyn, Kings County, New York, 11222, United States"
3072,Leonard St & Boerum St,40.707,-73.947,"71, Montrose Avenue, Brooklyn, Kings County, New York, 11206, United States"
3074,Montrose Ave & Bushwick Ave,40.70767788,-73.94016171,"Citi Bike - Montrose Ave & Bushwick Ave, Montrose Avenue, Brooklyn, Kings County, New York, 11206, United States"
3074,Montrose Ave & Bushwick Ave,40.707,-73.941,"221, Johnson Avenue, Brooklyn, Kings County, New York, 11206, United States"
3075,Division Ave & Marcy Ave,40.70708701,-73.95796783,"Citi Bike - Division Ave & Marcy Ave, Brooklyn-Queens Expressway, Williamsburg, Brooklyn, Kings County, New York, 11249, United States"
3076,Scholes St & Manhattan Ave,40.70870368,-73.9448625,"Citi Bike - Scholes St & Manhattan Ave, Scholes Street, Williamsburg, Brooklyn, Kings County, New York, 11206, United States"
3077,Stagg St & Union Ave,40.70877084,-73.95095259,"Citi Bike - Union Av / Hewes St, Hewes Street, Williamsburg, Brooklyn, Kings County, New York, 11211, United States"
3077,Stagg St & Union Ave,40.71,-73.95,"20, Maujer Street, Williamsburg, Brooklyn, Kings County, New York, 11206, United States"
3078,Broadway & Roebling St,40.70924826276157,-73.96063148975372,"Citi Bike - Broadway / Roebling St, Broadway, Williamsburg, Brooklyn, Kings County, New York, 11207, United States"
3078,Broadway & Roebling St,40.71,-73.962,"185, Broadway, Williamsburg, Brooklyn, Kings County, New York, 11211, United States"
3080,S 4 St & Rodney St,40.70934,-73.95608,"South 4th Street, Williamsburg, Brooklyn, Kings County, New York, 11211, United States"
3081,Graham Ave & Grand St,40.711863,-73.944024,"Citi Bike, Graham Avenue, Brooklyn, Kings County, New York, 11206, United States"
3082,Hope St & Union Ave,40.71167351,-73.95141312,"169, Hope Street, Williamsburg, Brooklyn, Kings County, New York, 11211, United States"
3083,Bushwick Ave & Powers St,40.71247661,-73.94100005,"Grand Street, Bushwick Avenue, Brooklyn, Kings County, New York, 11207, United States"
3085,Roebling St & N 4 St,40.71469,-73.95739,"Citi Bike - Roebling St / N 4 St, Conners Square, Williamsburg, Brooklyn, Kings County, New York, 11249, United States"
3086,Graham Ave & Conselyea St,40.715143,-73.944507,"355, Graham Avenue, Brooklyn, Kings County, New York, 11211, United States"
3086,Graham Ave & Conselyea St,40.716,-73.944,"174, Skillman Avenue, Williamsburg, Brooklyn, Kings County, New York, 11211, United States"
3087,Metropolitan Ave & Meeker Ave,40.71413311,-73.95234386,"Citi Bike - Metropolitan Av / Meeker Av, Metropolitan Avenue, Williamsburg, Brooklyn, Kings County, New York, 11211, United States"
3088,Union Ave & Jackson St,40.7160751,-73.952029,"Citi Bike - Union Ave & Jackson St, Union Avenue, Williamsburg, Brooklyn, Kings County, New York, 11211, United States"
3091,Frost St & Meeker St,40.71764,-73.94882,"Citi Bike - Frost St & Meeker St, Meeker Avenue, Williamsburg, Brooklyn, Kings County, New York, 11222, United States"
3092,Berry St & N 8 St,40.7190095,-73.95852515,"Citi Bike - Berry St & N 8 St, Berry Street, Williamsburg, Brooklyn, Kings County, New York, 11249, United States"
3092,Berry St & N 8 St,40.719,-73.959,"110, Berry Street, Williamsburg, Brooklyn, Kings County, New York, 11249, United States"
3093,N 6 St & Bedford Ave,40.71745169,-73.95850939,"147, North 6th Street, Williamsburg, Brooklyn, Kings County, New York, 11249, United States"
3093,N 6 St & Bedford Ave,40.716,-73.959,"149, North 4th Street, Williamsburg, Brooklyn, Kings County, New York, 11211, United States"
3094,Graham Ave & Withers St,40.7169811,-73.94485918,"Citi Bike - Graham Ave & Withers St, Graham Avenue, Greenpoint, Brooklyn, Kings County, New York, 11211, United States"
3095,Graham Ave & Herbert St,40.71929301,-73.94500379,"Citi Bike - Graham Ave & Herbert St, Meeker Avenue, Greenpoint, Brooklyn, Kings County, New York, 11211, United States"
3096,Union Ave & N 12 St,40.71924,-73.95242,"627, Union Avenue, Greenpoint, Brooklyn, Kings County, New York, 11211, United States"
3100,Nassau Ave & Newell St,40.724812564400175,-73.94752621650696,"146, Nassau Avenue, Greenpoint, Brooklyn, Kings County, New York, 11222, United States"
3100,Nassau Ave & Newell St,40.725,-73.947,"154, Nassau Avenue, Greenpoint, Brooklyn, Kings County, New York, 11222, United States"
3101,N 12 St & Bedford Ave,40.72079821,-73.95484712,"Citi Bike - N 12 St & Bedford Ave, North 12th Street, Greenpoint, Brooklyn, Kings County, New York, 11211, United States"
3101,N 12 St & Bedford Ave,40.722,-73.956,"22, Berry Street, Greenpoint, Brooklyn, Kings County, New York, 11249, United States"
3102,Driggs Ave & Lorimer St,40.72179134,-73.9504154,"Citi Bike - Driggs Ave & Lorimer St, Driggs Avenue, Greenpoint, Brooklyn, Kings County, New York, 11211, United States"
3105,N 15 St & Wythe Ave,40.724055,-73.955736,"Citi Bike, North 15th Street, Greenpoint, Brooklyn, Kings County, New York, 11222, United States"
3106,Driggs Ave & N Henry St,40.72325,-73.94308,"Citi Bike - Driggs Ave & N Henry St, Driggs Avenue, Greenpoint, Brooklyn, Kings County, New York, 11211, United States"
3106,Driggs Ave & N Henry St,40.722,-73.944,"39, Russell Street, Greenpoint, Brooklyn, Kings County, New York, 11222, United States"
3107,Bedford Ave & Nassau Ave,40.72311651,-73.95212324,"Citi Bike - Bedford Ave & Nassau Ave, Bedford Avenue, Greenpoint, Brooklyn, Kings County, New York, 11249, United States"
3107,Bedford Ave & Nassau Ave,40.722,-73.953,"50, Bedford Avenue, Greenpoint, Brooklyn, Kings County, New York, 11222, United States"
3108,Nassau Ave & Russell St,40.72557,-73.94434,"Citi Bike - Nassau Ave & Russell St, Nassau Avenue, Greenpoint, Brooklyn, Kings County, New York, 11222, United States"
3108,Nassau Ave & Russell St,40.725,-73.944,"135, Russell Street, Greenpoint, Brooklyn, Kings County, New York, 11222, United States"
3109,Banker St & Meserole Ave,40.72606,-73.95621,"Citi Bike - Banker St / Meserole Av, Banker Street, Greenpoint, Brooklyn, Kings County, New York, 11222, United States"
3110,Meserole Ave & Manhattan Ave,40.72708584,-73.95299117,"Citi Bike - Meserole Ave & Manhattan Ave, Meserole Avenue, Greenpoint, Brooklyn, Kings County, New York, 11222, United States"
3110,Meserole Ave & Manhattan Ave,40.728,-73.953,"802, Manhattan Avenue, Greenpoint, Brooklyn, Kings County, New York, 11222, United States"
3112,Milton St & Franklin St,40.72906,-73.95779,"Citi Bike - Milton St / Franklin St, Milton Street, Greenpoint, Brooklyn, Kings County, New York, 11222, United States"
3112,Milton St & Franklin St,40.728,-73.959,"42, West Street, Greenpoint, Brooklyn, Kings County, New York, 11222, United States"
3113,Greenpoint Ave & Manhattan Ave,40.73026,-73.95394,"Citi Bike - Greenpoint Av / Manhattan Av, Greenpoint Avenue, Brooklyn, Kings County, New York, 11222, United States"
3113,Greenpoint Ave & Manhattan Ave,40.731,-73.953,"192, Kent Street, Brooklyn, Kings County, New York, 11222, United States"
3113,Greenpoint Ave & Manhattan Ave [temporarily removed],40.73026,-73.95394,"Citi Bike - Greenpoint Av / Manhattan Av, Greenpoint Avenue, Brooklyn, Kings County, New York, 11222, United States"
3115,India St & Manhattan Ave,40.73232194,-73.9550858,"Citi Bike - India St & Manhattan Ave, India Street, Brooklyn, Kings County, New York, 11222, United States"
3116,Huron St & Franklin St,40.73266,-73.95826,"83, Huron Street, Brooklyn, Kings County, New York, 11222, United States"
3117,Franklin St & Dupont St,40.73564,-73.95866,"Citi Bike - Franklin St & Dupont St, Dupont Street, Greenpoint Landing, Brooklyn, Kings County, New York, 11222, United States"
3117,Franklin St & Dupont St,40.737,-73.959,"7, Bell Slip, Greenpoint Landing, Brooklyn, Kings County, New York, 11222, United States"
3118,McGuinness Blvd & Eagle St,40.73555,-73.95284,"Citi Bike - McGuinness Blvd & Eagle St, McGuinness Boulevard, Brooklyn, Kings County, New York, 11109, United States"
3118,McGuinness Blvd & Eagle St,40.737,-73.953,"Pulaski Bridge, Brooklyn, Kings County, New York, 11109, United States"
3119,Vernon Blvd & 50 Ave,40.74232744,-73.95411749,"Citi Bike - Vernon Bl / 50 Av, Vernon Boulevard, Hunters Point, Queens, Queens County, New York, 11109, United States"
3119,Vernon Blvd & 50 Ave,40.743,-73.953,"10-22, 49th Avenue, Long Island City, Queens, Queens County, New York, 11101, United States"
3121,Jackson Ave & 46 Rd,40.74524768,-73.94733276,"Citi Bike - Jackson Ave & 46 Rd, Jackson Avenue, Long Island City, Queens, Queens County, New York, 11101, United States"
3122,48 Ave & 5 St,40.744363287066875,-73.9558732509613,"Citylights at Queens Landing, 4-74, 48th Avenue, Hunters Point, Queens, Queens County, New York, 11109, United States"
3122,48 Ave & 5 St,40.743,-73.956,"HappyDogs, 5-04, 50th Avenue, Hunters Point, Queens, Queens County, New York, 11109, United States"
3123,31 St & Thomson Ave,40.74469738,-73.93540375,"LaGuardia Community College, 31-10, Thomson Avenue, Sunnyside, Queens, Queens County, New York, 11101, United States"
3123,31 St & Thomson Ave,40.746,-73.935,"Sunnyside Yard, 40th Street, Sunnyside Gardens, Queens, Queens County, New York, 11104, United States"
3124,46 Ave & 5 St,40.74731,-73.95451,"5-25, 46th Avenue, Long Island City, Queens, Queens County, New York, 11101, United States"
3125,45 Rd & 11 St,40.74708586,-73.94977234,"Citi Bike - 45 Rd & 11 St, 45th Road, Long Island City, Queens, Queens County, New York, 11101, United States"
3125,45 Rd & 11 St,40.746,-73.95,"11-14, 46th Avenue, Long Island City, Queens, Queens County, New York, 11101, United States"
3126,44 Dr & Jackson Ave,40.74718234,-73.9432635,"Citi Bike, 44th Drive, Court Square, Queens, Queens County, New York, 11101, United States"
3126,44 Dr & Jackson Ave,40.746,-73.944,"45-10, Court Square, Queens, Queens County, New York, 11101, United States"
3127,9 St & 44 Rd,40.74966,-73.9521,"Citi Bike - Vernon Bl / 44 Rd, Vernon Boulevard, Long Island City, Queens, Queens County, New York, 11109, United States"
3128,21 St & 43 Ave,40.75052534,-73.94594845,"Citi Bike - 21 St / 43 Av, 43rd Avenue, Court Square, Queens, Queens County, New York, 11101, United States"
3129,Queens Plaza North & Crescent St,40.75110165,-73.94073717,"Dero, Queens Plaza Greenway, Queensbridge, Queens, Queens County, New York, 11101, United States"
3129,Queens Plaza North & Crescent St,40.752,-73.941,"QLIC, 24th Street, Queensbridge, Queens, Queens County, New York, 11101, United States"
3130,21 St & Queens Plaza North,40.75325964,-73.94335788,"Citi Bike - 21 St / Qns Plz N, 21st Street, Queensbridge, Queens, Queens County, New York, 11101, United States"
3131,E 68 St & 3 Ave,40.76712840349542,-73.96224617958069,"Citi bike - East 68th Street & 3rd Avenue, East 68th Street, Manhattan Community Board 8, Manhattan, New York County, New York, 10021, United States"
3132,E 59 St & Madison Ave,40.76350532,-73.97109243,"35, East 59th Street, Upper East Side, Manhattan, New York County, New York, 10022, United States"
3132,E 59 St & Madison Ave,40.764,-73.971,"645, Madison Avenue, Manhattan Community Board 8, Manhattan, New York County, New York, 10022, United States"
3134,3 Ave & E 62 St,40.76312584,-73.96526895,"200, East 62nd Street, Manhattan Community Board 8, Manhattan, New York County, New York, 10065, United States"
3135,E 75 St & 3 Ave,40.77112927,-73.95772297,"236, East 75th Street, Lenox Hill, Manhattan, New York County, New York, 10021, United States"
3136,5 Ave & E 63 St,40.766368,-73.971518,"Supreme Snail Emporium, 5th Avenue, Manhattan Community Board 8, Manhattan, New York County, New York, 10035, United States"
3136,5 Ave & E 63 St,40.767,-73.971,"818, 5th Avenue, Manhattan Community Board 8, Manhattan, New York County, New York, 10065, United States"
3137,5 Ave & E 73 St,40.77282817,-73.96685276,"Central Park Outer Loop, Manhattan, New York County, New York, 10075-0381, United States"
3137,5 Ave & E 73 St,40.773,-73.968,"The Pilgrim, 72nd Street Transverse, Manhattan, New York County, New York, 10065, United States"
3137,5 Ave & E 72 St,40.77282817,-73.96685276,"Central Park Outer Loop, Manhattan, New York County, New York, 10075-0381, United States"
3139,E 72 St & Park Ave,40.77118287540658,-73.96409422159195,"Citi Bike, East 72nd Street, Manhattan Community Board 8, Manhattan, New York County, New York, 10021, United States"
3139,E 72 St & Park Ave,40.77,-73.965,"49, East 70th Street, Upper East Side, Manhattan, New York County, New York, 10021, United States"
3140,1 Ave & E 78 St,40.77140426,-73.9535166,"1487, 1st Avenue, East Harlem, Manhattan Community Board 8, Manhattan, New York County, New York, 10075, United States"
3140,1 Ave & E 78 St,40.77,-73.953,"421, East 76th Street, Manhattan Community Board 8, Manhattan, New York County, New York, 10021, United States"
3141,1 Ave & E 68 St,40.76500525,-73.95818491,"Citi Bike 1 Avenue & E 68 Street, 1st Avenue, East Harlem, Manhattan Community Board 8, Manhattan, New York County, New York, 10029-6408, United States"
3141,1 Ave & E 68 St,40.764,-73.959,"Chirping Chicken, 1st Avenue, East Harlem, Manhattan Community Board 8, Manhattan, New York County, New York, 10029-6408, United States"
3142,1 Ave & E 62 St,40.7612274,-73.96094022,"Citi Bike - 1 Av & E 62 St, 1st Avenue, East Harlem, Manhattan Community Board 8, Manhattan, New York County, New York, 10029-6408, United States"
3142,1 Ave & E 62 St,40.761,-73.962,"336, East 61st Street, Manhattan Community Board 8, Manhattan, New York County, New York, 10065, United States"
3143,5 Ave & E 78 St,40.77632142182271,-73.96427392959595,"969, 5th Avenue, Manhattan Community Board 8, Manhattan, New York County, New York, 10075, United States"
3143,5 Ave & E 78 St,40.776,-73.965,"James Michael Levin Playground, 5th Avenue, Upper East Side, Manhattan, New York County, New York, 10035, United States"
3144,E 81 St & Park Ave,40.77677702,-73.9590097,"101, East 81st Street, Manhattan Community Board 8, Manhattan, New York County, New York, 10028, United States"
3145,E 84 St & Park Ave,40.77862688,-73.95772073,"100, East 84th Street, Upper East Side, Manhattan, New York County, New York, 10028, United States"
3145,E 84 St & Park Ave,40.779,-73.959,"Church of Saint Ignatius Loyola, East 84th Street, Upper East Side, Manhattan, New York County, New York, 10028, United States"
3146,E 81 St & 3 Ave,40.77573034,-73.9567526,"Antonucci Cafe, 170, East 81st Street, Manhattan Community Board 8, Manhattan, New York County, New York, 10028, United States"
3147,E 85 St & 3 Ave,40.77801203,-73.95407149,"201, East 85th Street, Manhattan Community Board 8, Manhattan, New York County, New York, 10028, United States"
3147,E 85 St & 3 Ave,40.779,-73.953,"210, East 87th Street, Carnegie Hill, Manhattan Community Board 8, Manhattan, New York County, New York, 10028, United States"
3148,E 84 St & 1 Ave,40.77565541,-73.95068615,"354, East 84th Street, Manhattan Community Board 8, Manhattan, New York County, New York, 10028, United States"
3148,E 84 St & 1 Ave,40.776,-73.95,"1630, 1st Avenue, Manhattan Community Board 8, Manhattan, New York County, New York, 10028, United States"
3150,E 85 St & York Ave,40.77536905,-73.94803392,"446, East 85th Street, Manhattan Community Board 8, Manhattan, New York County, New York, 10028, United States"
3151,E 81 St & York Ave,40.7728384,-73.94989233,"450, East 81st Street, Manhattan Community Board 8, Manhattan, New York County, New York, 10075, United States"
